{"type":"Topology","objects":{"cities":{"type":"GeometryCollection","geometries":[{"type":"Point","properties":{"name":"Nazran","state":"Ingush"},"coordinates":[6251,330]},{"type":"Point","properties":{"name":"Ust' Ordynskiy","state":"Ust-Orda Buryat"},"coordinates":[7920,3021]},{"type":"Point","properties":{"name":"Maykop","state":"Adygey"},"coordinates":[6121,716]},{"type":"Point","properties":{"name":"Mozdok","state":"North Ossetia"},"coordinates":[6248,476]},{"type":"Point","properties":{"name":"Georgievsk","state":"Stavropol'"},"coordinates":[6215,589]},{"type":"Point","properties":{"name":"Pyatigorsk","state":"Stavropol'"},"coordinates":[6204,567]},{"type":"Point","properties":{"name":"Kislovodsk","state":"Stavropol'"},"coordinates":[6194,519]},{"type":"Point","properties":{"name":"Nevinnomyssk","state":"Stavropol'"},"coordinates":[6172,718]},{"type":"Point","properties":{"name":"Enurmino","state":"Chukchi Autonomous Okrug"},"coordinates":[217,6980]},{"type":"Point","properties":{"name":"Lavrentiya","state":"Chukchi Autonomous Okrug"},"coordinates":[239,6597]},{"type":"Point","properties":{"name":"Zvezdnyy","state":"Chukchi Autonomous Okrug"},"coordinates":[0,8103]},{"type":"Point","properties":{"name":"Mikhalkino","state":"Koryak"},"coordinates":[9502,7674]},{"type":"Point","properties":{"name":"Chernyakhovsk","state":"Kaliningrad"},"coordinates":[5611,3526]},{"type":"Point","properties":{"name":"Severomorsk","state":"Murmansk"},"coordinates":[5935,7575]},{"type":"Point","properties":{"name":"Apatity","state":"Murmansk"},"coordinates":[5934,7155]},{"type":"Point","properties":{"name":"Polyarnyy","state":"Murmansk"},"coordinates":[5935,7612]},{"type":"Point","properties":{"name":"Slantsy","state":"Leningrad"},"coordinates":[5786,4782]},{"type":"Point","properties":{"name":"Kolpino","state":"City of St. Petersburg"},"coordinates":[5857,4955]},{"type":"Point","properties":{"name":"Novozybkov","state":"Bryansk"},"coordinates":[5893,2938]},{"type":"Point","properties":{"name":"Dyatkovo","state":"Bryansk"},"coordinates":[5960,3233]},{"type":"Point","properties":{"name":"Shuya","state":"Ivanovo"},"coordinates":[6156,4149]},{"type":"Point","properties":{"name":"Kineshma","state":"Ivanovo"},"coordinates":[6177,4322]},{"type":"Point","properties":{"name":"Balakhna","state":"Nizhegorod"},"coordinates":[6218,4048]},{"type":"Point","properties":{"name":"Arzamas","state":"Nizhegorod"},"coordinates":[6224,3741]},{"type":"Point","properties":{"name":"Rzhev","state":"Tver'"},"coordinates":[5960,3982]},{"type":"Point","properties":{"name":"Vyshnniy Volochek","state":"Tver'"},"coordinates":[5966,4353]},{"type":"Point","properties":{"name":"Uglich","state":"Yaroslavl'"},"coordinates":[6071,4337]},{"type":"Point","properties":{"name":"Yelets","state":"Lipetsk"},"coordinates":[6076,2950]},{"type":"Point","properties":{"name":"Orekhovo-Zuevo","state":"Moskovsskaya"},"coordinates":[6089,3859]},{"type":"Point","properties":{"name":"Klin","state":"Moskovsskaya"},"coordinates":[6026,4006]},{"type":"Point","properties":{"name":"Sergiyev Posad","state":"Moskovsskaya"},"coordinates":[6067,4002]},{"type":"Point","properties":{"name":"Kolomna","state":"Moskovsskaya"},"coordinates":[6084,3651]},{"type":"Point","properties":{"name":"Bataysk","state":"Rostov"},"coordinates":[6111,1424]},{"type":"Point","properties":{"name":"Taganrog","state":"Rostov"},"coordinates":[6088,1450]},{"type":"Point","properties":{"name":"Novocherkassk","state":"Rostov"},"coordinates":[6120,1504]},{"type":"Point","properties":{"name":"Kamensk Shakhtinskiy","state":"Rostov"},"coordinates":[6125,1759]},{"type":"Point","properties":{"name":"Novoshakhtinsk","state":"Rostov"},"coordinates":[6116,1602]},{"type":"Point","properties":{"name":"Aleksin","state":"Tula"},"coordinates":[6037,3493]},{"type":"Point","properties":{"name":"Novomoskovsk","state":"Tula"},"coordinates":[6068,3374]},{"type":"Point","properties":{"name":"Shchekino","state":"Tula"},"coordinates":[6049,3353]},{"type":"Point","properties":{"name":"Nikolayevsk","state":"Volgograd"},"coordinates":[6269,2232]},{"type":"Point","properties":{"name":"Shebekino","state":"Belgorod"},"coordinates":[6031,2343]},{"type":"Point","properties":{"name":"Gubkin","state":"Belgorod"},"coordinates":[6045,2584]},{"type":"Point","properties":{"name":"Apsheronsk","state":"Krasnodar"},"coordinates":[6110,676]},{"type":"Point","properties":{"name":"Kropotkin","state":"Krasnodar"},"coordinates":[6134,950]},{"type":"Point","properties":{"name":"Ruzayevka","state":"Mordovia"},"coordinates":[6255,3367]},{"type":"Point","properties":{"name":"Kirsanov","state":"Tambov"},"coordinates":[6194,2972]},{"type":"Point","properties":{"name":"Michurinsk","state":"Tambov"},"coordinates":[6132,3040]},{"type":"Point","properties":{"name":"Borisoglebsk","state":"Voronezh"},"coordinates":[6176,2611]},{"type":"Point","properties":{"name":"Oktyabrskiy","state":"Bashkortostan"},"coordinates":[6493,3478]},{"type":"Point","properties":{"name":"Plast","state":"Chelyabinsk"},"coordinates":[6698,3452]},{"type":"Point","properties":{"name":"Bakal","state":"Chelyabinsk"},"coordinates":[6642,3614]},{"type":"Point","properties":{"name":"Verkhniy Ufaley","state":"Chelyabinsk"},"coordinates":[6682,3928]},{"type":"Point","properties":{"name":"Severnyy","state":"Komi"},"coordinates":[6790,7164]},{"type":"Point","properties":{"name":"Kirovo-Chepetsk","state":"Kirov"},"coordinates":[6398,4626]},{"type":"Point","properties":{"name":"Krasnoturinsk","state":"Sverdlovsk"},"coordinates":[6689,4974]},{"type":"Point","properties":{"name":"Asbest","state":"Sverdlovsk"},"coordinates":[6716,4196]},{"type":"Point","properties":{"name":"Alapayevsk","state":"Sverdlovsk"},"coordinates":[6722,4427]},{"type":"Point","properties":{"name":"Krasnouralsk","state":"Sverdlovsk"},"coordinates":[6677,4569]},{"type":"Point","properties":{"name":"Severouralsk","state":"Sverdlovsk"},"coordinates":[6674,5075]},{"type":"Point","properties":{"name":"Novotroitsk","state":"Orenburg"},"coordinates":[6629,2564]},{"type":"Point","properties":{"name":"Buguruslan","state":"Orenburg"},"coordinates":[6464,3254]},{"type":"Point","properties":{"name":"Chapayevsk","state":"Samara"},"coordinates":[6389,3061]},{"type":"Point","properties":{"name":"Syzran","state":"Samara"},"coordinates":[6354,3116]},{"type":"Point","properties":{"name":"Novokuybishevsk","state":"Samara"},"coordinates":[6394,3102]},{"type":"Point","properties":{"name":"Naberezhnyye Chelny","state":"Tatarstan"},"coordinates":[6461,3825]},{"type":"Point","properties":{"name":"Zelenodolsk","state":"Tatarstan"},"coordinates":[6359,3865]},{"type":"Point","properties":{"name":"Leninogorsk","state":"Tatarstan"},"coordinates":[6465,3517]},{"type":"Point","properties":{"name":"Bugulma","state":"Tatarstan"},"coordinates":[6474,3504]},{"type":"Point","properties":{"name":"Nefteyugansk","state":"Khanty-Mansiy"},"coordinates":[7029,5333]},{"type":"Point","properties":{"name":"Leninsk Kuznetsky","state":"Kemerovo"},"coordinates":[7404,3534]},{"type":"Point","properties":{"name":"Anzhero Sudzhensk","state":"Kemerovo"},"coordinates":[7401,3932]},{"type":"Point","properties":{"name":"Kiselevsk","state":"Kemerovo"},"coordinates":[7417,3349]},{"type":"Point","properties":{"name":"Mundybash","state":"Kemerovo"},"coordinates":[7436,3134]},{"type":"Point","properties":{"name":"Chernogorsk","state":"Khakass"},"coordinates":[7545,3301]},{"type":"Point","properties":{"name":"Abaza","state":"Khakass"},"coordinates":[7514,2975]},{"type":"Point","properties":{"name":"Iskitim","state":"Novosibirsk"},"coordinates":[7324,3531]},{"type":"Point","properties":{"name":"Toguchin","state":"Novosibirsk"},"coordinates":[7354,3696]},{"type":"Point","properties":{"name":"Kupina","state":"Novosibirsk"},"coordinates":[7156,3449]},{"type":"Point","properties":{"name":"Zaozernyy","state":"Krasnoyarsk"},"coordinates":[7642,3899]},{"type":"Point","properties":{"name":"Bogotol","state":"Krasnoyarsk"},"coordinates":[7497,3970]},{"type":"Point","properties":{"name":"Shilka","state":"Chita"},"coordinates":[8236,2752]},{"type":"Point","properties":{"name":"Sherlovaya Gora","state":"Chita"},"coordinates":[8244,2376]},{"type":"Point","properties":{"name":"Petrovsk Zabaykalskiy","state":"Chita"},"coordinates":[8036,2587]},{"type":"Point","properties":{"name":"Arsenyev","state":"Primor'ye"},"coordinates":[8717,590]},{"type":"Point","properties":{"name":"Partizansk","state":"Primor'ye"},"coordinates":[8713,302]},{"type":"Point","properties":{"name":"Dalnerechensk","state":"Primor'ye"},"coordinates":[8729,1085]},{"type":"Point","properties":{"name":"Zemlya Bunge","state":"Sakha (Yakutia)"},"coordinates":[8963,9209]},{"type":"Point","properties":{"name":"Khorgo","state":"Sakha (Yakutia)"},"coordinates":[8169,8812]},{"type":"Point","properties":{"name":"Put Lenina","state":"Sakha (Yakutia)"},"coordinates":[8007,7419]},{"type":"Point","properties":{"name":"Obluchye","state":"Yevrey"},"coordinates":[8655,1947]},{"type":"Point","properties":{"name":"Vanino","state":"Khabarovsk"},"coordinates":[8911,1971]},{"type":"Point","properties":{"name":"Omchak","state":"Maga Buryatdan"},"coordinates":[9124,5489]},{"type":"Point","properties":{"name":"Uglegorsk","state":"Sakhalin"},"coordinates":[8961,1970]},{"type":"Point","properties":{"name":"Kholmsk","state":"Sakhalin"},"coordinates":[8961,1399]},{"type":"Point","properties":{"name":"Solikamsk","state":"Perm'"},"coordinates":[6585,4939]},{"type":"Point","properties":{"name":"Kizel","state":"Perm'"},"coordinates":[6609,4769]},{"type":"Point","properties":{"name":"Pakhachi","state":"Kamchatka"},"coordinates":[9713,5194]},{"type":"Point","properties":{"name":"Oymyakon","state":"Sakha (Yakutia)"},"coordinates":[8981,5990]},{"type":"Point","properties":{"name":"Timiryazevskiy","state":"Tomsk"},"coordinates":[7369,4048]},{"type":"Point","properties":{"name":"Asino","state":"Tomsk"},"coordinates":[7404,4188]},{"type":"Point","properties":{"name":"Strezhevoy","state":"Tomsk"},"coordinates":[7165,5237]},{"type":"Point","properties":{"name":"Cherkessk","state":"Karachay-Cherkess"},"coordinates":[6175,626]},{"type":"Point","properties":{"name":"Vladikavkaz","state":"North Ossetia"},"coordinates":[6248,278]},{"type":"Point","properties":{"name":"Blagodarnyy","state":"Stavropol'"},"coordinates":[6214,854]},{"type":"Point","properties":{"name":"Zelenokumsk","state":"Stavropol'"},"coordinates":[6226,659]},{"type":"Point","properties":{"name":"Mukhomornoye","state":"Chukchi Autonomous Okrug"},"coordinates":[9833,6830]},{"type":"Point","properties":{"name":"Beringovskiy","state":"Chukchi Autonomous Okrug"},"coordinates":[9999,5891]},{"type":"Point","properties":{"name":"Bilibino","state":"Chukchi Autonomous Okrug"},"coordinates":[9638,7288]},{"type":"Point","properties":{"name":"Mys Shmidta","state":"Chukchi Autonomous Okrug"},"coordinates":[3,7536]},{"type":"Point","properties":{"name":"Egvekinot","state":"Chukchi Autonomous Okrug"},"coordinates":[11,6804]},{"type":"Point","properties":{"name":"Sovetsk","state":"Kaliningrad"},"coordinates":[5613,3649]},{"type":"Point","properties":{"name":"Nikel","state":"Murmansk"},"coordinates":[5845,7670]},{"type":"Point","properties":{"name":"Monchegorsk","state":"Murmansk"},"coordinates":[5918,7254]},{"type":"Point","properties":{"name":"Kirovsk","state":"Murmansk"},"coordinates":[5941,7165]},{"type":"Point","properties":{"name":"Borovichi","state":"Novgorod"},"coordinates":[5948,4582]},{"type":"Point","properties":{"name":"Staraya Russa","state":"Novgorod"},"coordinates":[5877,4469]},{"type":"Point","properties":{"name":"Volkhov","state":"Leningrad"},"coordinates":[5904,5011]},{"type":"Point","properties":{"name":"Tikhvin","state":"Leningrad"},"coordinates":[5937,4931]},{"type":"Point","properties":{"name":"Svetogorsk","state":"Leningrad"},"coordinates":[5809,5340]},{"type":"Point","properties":{"name":"Gatchina","state":"Leningrad"},"coordinates":[5843,4911]},{"type":"Point","properties":{"name":"Luga","state":"Leningrad"},"coordinates":[5835,4677]},{"type":"Point","properties":{"name":"Klintsy","state":"Bryansk"},"coordinates":[5902,3002]},{"type":"Point","properties":{"name":"Roslavl","state":"Smolensk"},"coordinates":[5919,3335]},{"type":"Point","properties":{"name":"Safonovo","state":"Smolensk"},"coordinates":[5929,3670]},{"type":"Point","properties":{"name":"Vyazma","state":"Smolensk"},"coordinates":[5959,3689]},{"type":"Point","properties":{"name":"Segezha","state":"Karelia"},"coordinates":[5960,6084]},{"type":"Point","properties":{"name":"Vichuga","state":"Ivanovo"},"coordinates":[6172,4251]},{"type":"Point","properties":{"name":"Sharya","state":"Kostroma"},"coordinates":[6271,4577]},{"type":"Point","properties":{"name":"Buy","state":"Kostroma"},"coordinates":[6160,4606]},{"type":"Point","properties":{"name":"Dzerzhinsk","state":"Nizhegorod"},"coordinates":[6214,3980]},{"type":"Point","properties":{"name":"Vyska","state":"Nizhegorod"},"coordinates":[6178,3720]},{"type":"Point","properties":{"name":"Kimry","state":"Tver'"},"coordinates":[6044,4153]},{"type":"Point","properties":{"name":"Bezhetsk","state":"Tver'"},"coordinates":[6026,4404]},{"type":"Point","properties":{"name":"Nelidovo","state":"Tver'"},"coordinates":[5917,3972]},{"type":"Point","properties":{"name":"Bologoye","state":"Tver'"},"coordinates":[5952,4434]},{"type":"Point","properties":{"name":"Torzhok","state":"Tver'"},"coordinates":[5978,4198]},{"type":"Point","properties":{"name":"Sokol","state":"Vologda"},"coordinates":[6121,4881]},{"type":"Point","properties":{"name":"Cherepovets","state":"Vologda"},"coordinates":[6060,4790]},{"type":"Point","properties":{"name":"Rybinsk","state":"Yaroslavl'"},"coordinates":[6085,4484]},{"type":"Point","properties":{"name":"Rostov","state":"Yaroslavl'"},"coordinates":[6101,4243]},{"type":"Point","properties":{"name":"Kaluga","state":"Kaluga"},"coordinates":[6014,3495]},{"type":"Point","properties":{"name":"Kirov","state":"Kaluga"},"coordinates":[5959,3373]},{"type":"Point","properties":{"name":"Obninsk","state":"Kaluga"},"coordinates":[6024,3652]},{"type":"Point","properties":{"name":"Lgov","state":"Kursk"},"coordinates":[5986,2702]},{"type":"Point","properties":{"name":"Zheleznogorsk","state":"Kursk"},"coordinates":[5990,2887]},{"type":"Point","properties":{"name":"Gryazi","state":"Lipetsk"},"coordinates":[6116,2927]},{"type":"Point","properties":{"name":"Yegoryevsk","state":"Moskovsskaya"},"coordinates":[6091,3737]},{"type":"Point","properties":{"name":"Podolsk","state":"Moskovsskaya"},"coordinates":[6049,3736]},{"type":"Point","properties":{"name":"Solnechnogorsk","state":"Moskovsskaya"},"coordinates":[6034,3960]},{"type":"Point","properties":{"name":"Noginsk","state":"Moskovsskaya"},"coordinates":[6076,3873]},{"type":"Point","properties":{"name":"Serpukhov","state":"Moskovsskaya"},"coordinates":[6046,3610]},{"type":"Point","properties":{"name":"Livny","state":"Orel"},"coordinates":[6051,2907]},{"type":"Point","properties":{"name":"Mtsensk","state":"Orel"},"coordinates":[6022,3142]},{"type":"Point","properties":{"name":"Salsk","state":"Rostov"},"coordinates":[6161,1239]},{"type":"Point","properties":{"name":"Belaya Kalitva","state":"Rostov"},"coordinates":[6140,1719]},{"type":"Point","properties":{"name":"Shakhty","state":"Rostov"},"coordinates":[6125,1588]},{"type":"Point","properties":{"name":"Millerovo","state":"Rostov"},"coordinates":[6129,1929]},{"type":"Point","properties":{"name":"Yefremov","state":"Tula"},"coordinates":[6066,3110]},{"type":"Point","properties":{"name":"Bogoroditsk","state":"Tula"},"coordinates":[6065,3285]},{"type":"Point","properties":{"name":"Kamyshin","state":"Volgograd"},"coordinates":[6268,2250]},{"type":"Point","properties":{"name":"Pallasovka","state":"Volgograd"},"coordinates":[6309,2240]},{"type":"Point","properties":{"name":"Frolovo","state":"Volgograd"},"coordinates":[6220,2163]},{"type":"Point","properties":{"name":"Volzhskiy","state":"Volgograd"},"coordinates":[6251,1889]},{"type":"Point","properties":{"name":"Mikhaylovka","state":"Volgograd"},"coordinates":[6208,2246]},{"type":"Point","properties":{"name":"Uryupinsk","state":"Volgograd"},"coordinates":[6174,2444]},{"type":"Point","properties":{"name":"Starsy Oskol","state":"Belgorod"},"coordinates":[6058,2592]},{"type":"Point","properties":{"name":"Alekseyevka","state":"Belgorod"},"coordinates":[6081,2410]},{"type":"Point","properties":{"name":"Valuyki","state":"Belgorod"},"coordinates":[6065,2286]},{"type":"Point","properties":{"name":"Tuapse","state":"Krasnodar"},"coordinates":[6092,577]},{"type":"Point","properties":{"name":"Gelendzhik","state":"Krasnodar"},"coordinates":[6064,706]},{"type":"Point","properties":{"name":"Labinsk","state":"Krasnodar"},"coordinates":[6139,723]},{"type":"Point","properties":{"name":"Armavir","state":"Krasnodar"},"coordinates":[6149,825]},{"type":"Point","properties":{"name":"Timashevsk","state":"Krasnodar"},"coordinates":[6088,1000]},{"type":"Point","properties":{"name":"Tikhoretsk","state":"Krasnodar"},"coordinates":[6122,1064]},{"type":"Point","properties":{"name":"Yeysk","state":"Krasnodar"},"coordinates":[6069,1301]},{"type":"Point","properties":{"name":"Saransk","state":"Mordovia"},"coordinates":[6262,3396]},{"type":"Point","properties":{"name":"Kamenka","state":"Penza"},"coordinates":[6231,3123]},{"type":"Point","properties":{"name":"Kuznetsk","state":"Penza"},"coordinates":[6302,3102]},{"type":"Point","properties":{"name":"Serdobsk","state":"Penza"},"coordinates":[6235,2917]},{"type":"Point","properties":{"name":"Kasimov","state":"Ryazan'"},"coordinates":[6157,3613]},{"type":"Point","properties":{"name":"Sasovo","state":"Ryazan'"},"coordinates":[6171,3447]},{"type":"Point","properties":{"name":"Kotovsk","state":"Tambov"},"coordinates":[6160,2955]},{"type":"Point","properties":{"name":"Morshansk","state":"Tambov"},"coordinates":[6168,3196]},{"type":"Point","properties":{"name":"Kovrov","state":"Vladimir"},"coordinates":[6155,4011]},{"type":"Point","properties":{"name":"Murom","state":"Vladimir"},"coordinates":[6175,3789]},{"type":"Point","properties":{"name":"Rayevskiy","state":"Bashkortostan"},"coordinates":[6534,3368]},{"type":"Point","properties":{"name":"Sibay","state":"Bashkortostan"},"coordinates":[6637,2987]},{"type":"Point","properties":{"name":"Kumertau","state":"Bashkortostan"},"coordinates":[6558,3005]},{"type":"Point","properties":{"name":"Salavat","state":"Bashkortostan"},"coordinates":[6562,3172]},{"type":"Point","properties":{"name":"Belebey","state":"Bashkortostan"},"coordinates":[6511,3385]},{"type":"Point","properties":{"name":"Tuymazy","state":"Bashkortostan"},"coordinates":[6499,3518]},{"type":"Point","properties":{"name":"Neftekamsk","state":"Bashkortostan"},"coordinates":[6515,3933]},{"type":"Point","properties":{"name":"Troitsk","state":"Chelyabinsk"},"coordinates":[6719,3378]},{"type":"Point","properties":{"name":"Yemanzhelinsk","state":"Chelyabinsk"},"coordinates":[6711,3559]},{"type":"Point","properties":{"name":"Kartaly","state":"Chelyabinsk"},"coordinates":[6694,3082]},{"type":"Point","properties":{"name":"Asha","state":"Chelyabinsk"},"coordinates":[6599,3628]},{"type":"Point","properties":{"name":"Miass","state":"Chelyabinsk"},"coordinates":[6678,3628]},{"type":"Point","properties":{"name":"Kyshtym","state":"Chelyabinsk"},"coordinates":[6691,3825]},{"type":"Point","properties":{"name":"Kurtamysh","state":"Kurgan"},"coordinates":[6799,3603]},{"type":"Point","properties":{"name":"Shadrinsk","state":"Kurgan"},"coordinates":[6776,3933]},{"type":"Point","properties":{"name":"Varnek","state":"Nenets"},"coordinates":[6677,7759]},{"type":"Point","properties":{"name":"Bugrino","state":"Nenets"},"coordinates":[6377,7501]},{"type":"Point","properties":{"name":"Yamburg","state":"Yamal-Nenets"},"coordinates":[7152,7373]},{"type":"Point","properties":{"name":"Nakhodka","state":"Yamal-Nenets"},"coordinates":[7163,7204]},{"type":"Point","properties":{"name":"Sosnogorsk","state":"Komi"},"coordinates":[6505,6039]},{"type":"Point","properties":{"name":"Sovetsk","state":"Kirov"},"coordinates":[6367,4352]},{"type":"Point","properties":{"name":"Slobodskoy","state":"Kirov"},"coordinates":[6402,4672]},{"type":"Point","properties":{"name":"Kirs","state":"Kirov"},"coordinates":[6459,4839]},{"type":"Point","properties":{"name":"Omutninsk","state":"Kirov"},"coordinates":[6457,4655]},{"type":"Point","properties":{"name":"Kotelnich","state":"Kirov"},"coordinates":[6349,4556]},{"type":"Point","properties":{"name":"Yoshkar Ola","state":"Mariy-El"},"coordinates":[6337,4088]},{"type":"Point","properties":{"name":"Kamensk Uralskiy","state":"Sverdlovsk"},"coordinates":[6729,4027]},{"type":"Point","properties":{"name":"Polevskoy","state":"Sverdlovsk"},"coordinates":[6680,4034]},{"type":"Point","properties":{"name":"Tavda","state":"Sverdlovsk"},"coordinates":[6822,4485]},{"type":"Point","properties":{"name":"Artemovskiy","state":"Sverdlovsk"},"coordinates":[6727,4292]},{"type":"Point","properties":{"name":"Nevyansk","state":"Sverdlovsk"},"coordinates":[6681,4327]},{"type":"Point","properties":{"name":"Verkhnyaya Salda","state":"Sverdlovsk"},"coordinates":[6690,4484]},{"type":"Point","properties":{"name":"Nizhnyaya Tura","state":"Sverdlovsk"},"coordinates":[6669,4651]},{"type":"Point","properties":{"name":"Karpinsk","state":"Sverdlovsk"},"coordinates":[6675,4964]},{"type":"Point","properties":{"name":"Ivdel","state":"Sverdlovsk"},"coordinates":[6687,5226]},{"type":"Point","properties":{"name":"Krasnoufimsk","state":"Sverdlovsk"},"coordinates":[6613,4077]},{"type":"Point","properties":{"name":"Sarapul","state":"Udmurt"},"coordinates":[6502,4044]},{"type":"Point","properties":{"name":"Mozhga","state":"Udmurt"},"coordinates":[6457,4037]},{"type":"Point","properties":{"name":"Votkinsk","state":"Udmurt"},"coordinates":[6508,4198]},{"type":"Point","properties":{"name":"Glazov","state":"Udmurt"},"coordinates":[6470,4505]},{"type":"Point","properties":{"name":"Kanash","state":"Chuvash"},"coordinates":[6326,3772]},{"type":"Point","properties":{"name":"Shumerlya","state":"Chuvash"},"coordinates":[6297,3765]},{"type":"Point","properties":{"name":"Alatyr","state":"Chuvash"},"coordinates":[6302,3587]},{"type":"Point","properties":{"name":"Sol-lletsk","state":"Orenburg"},"coordinates":[6536,2552]},{"type":"Point","properties":{"name":"Dombarovskiy","state":"Orenburg"},"coordinates":[6662,2439]},{"type":"Point","properties":{"name":"Mednogorsk","state":"Orenburg"},"coordinates":[6608,2625]},{"type":"Point","properties":{"name":"Gay","state":"Orenburg"},"coordinates":[6632,2641]},{"type":"Point","properties":{"name":"Buzuluk","state":"Orenburg"},"coordinates":[6459,3007]},{"type":"Point","properties":{"name":"Otradnyy","state":"Samara"},"coordinates":[6434,3174]},{"type":"Point","properties":{"name":"Tolyatti","state":"Samara"},"coordinates":[6383,3203]},{"type":"Point","properties":{"name":"Engels","state":"Saratov"},"coordinates":[6288,2648]},{"type":"Point","properties":{"name":"Pugachev","state":"Saratov"},"coordinates":[6363,2792]},{"type":"Point","properties":{"name":"Volsk","state":"Saratov"},"coordinates":[6323,2798]},{"type":"Point","properties":{"name":"Atkarsk","state":"Saratov"},"coordinates":[6257,2753]},{"type":"Point","properties":{"name":"Balashov","state":"Saratov"},"coordinates":[6206,2663]},{"type":"Point","properties":{"name":"Almetyevsk","state":"Tatarstan"},"coordinates":[6461,3601]},{"type":"Point","properties":{"name":"Chistopol","state":"Tatarstan"},"coordinates":[6414,3731]},{"type":"Point","properties":{"name":"Nizhnekamsk","state":"Tatarstan"},"coordinates":[6447,3809]},{"type":"Point","properties":{"name":"Dimitrovgrad","state":"Ul'yanovsk"},"coordinates":[6384,3419]},{"type":"Point","properties":{"name":"Peregrebnoye","state":"Khanty-Mansiy"},"coordinates":[6817,5863]},{"type":"Point","properties":{"name":"Saranpaul","state":"Khanty-Mansiy"},"coordinates":[6702,6223]},{"type":"Point","properties":{"name":"Uray","state":"Khanty-Mansiy"},"coordinates":[6808,5070]},{"type":"Point","properties":{"name":"Laryak","state":"Khanty-Mansiy"},"coordinates":[7239,5340]},{"type":"Point","properties":{"name":"Kogalym","state":"Khanty-Mansiy"},"coordinates":[7079,5604]},{"type":"Point","properties":{"name":"Megion","state":"Khanty-Mansiy"},"coordinates":[7123,5329]},{"type":"Point","properties":{"name":"Cherlak","state":"Omsk"},"coordinates":[7088,3394]},{"type":"Point","properties":{"name":"Kalachinsk","state":"Omsk"},"coordinates":[7081,3643]},{"type":"Point","properties":{"name":"Nazyvayevsk","state":"Omsk"},"coordinates":[6991,3788]},{"type":"Point","properties":{"name":"Isikul","state":"Omsk"},"coordinates":[6989,3609]},{"type":"Point","properties":{"name":"Ishim","state":"Tyumen'"},"coordinates":[6938,3952]},{"type":"Point","properties":{"name":"Golyshmanovo","state":"Tyumen'"},"coordinates":[6908,4017]},{"type":"Point","properties":{"name":"Yalutorovsk","state":"Tyumen'"},"coordinates":[6851,4098]},{"type":"Point","properties":{"name":"Biysk","state":"Altay"},"coordinates":[7377,2938]},{"type":"Point","properties":{"name":"Zmeinogorsk","state":"Altay"},"coordinates":[7293,2551]},{"type":"Point","properties":{"name":"Aleysk","state":"Altay"},"coordinates":[7310,2926]},{"type":"Point","properties":{"name":"Novoaltaysk","state":"Altay"},"coordinates":[7343,3180]},{"type":"Point","properties":{"name":"Kamenna Obi","state":"Altay"},"coordinates":[7270,3291]},{"type":"Point","properties":{"name":"Gornyak","state":"Altay"},"coordinates":[7274,2504]},{"type":"Point","properties":{"name":"Kulunda","state":"Altay"},"coordinates":[7203,2951]},{"type":"Point","properties":{"name":"Slavgorod","state":"Altay"},"coordinates":[7195,3070]},{"type":"Point","properties":{"name":"Tashtagol","state":"Kemerovo"},"coordinates":[7451,3010]},{"type":"Point","properties":{"name":"Guryevsk","state":"Kemerovo"},"coordinates":[7398,3432]},{"type":"Point","properties":{"name":"Yurga","state":"Kemerovo"},"coordinates":[7368,3833]},{"type":"Point","properties":{"name":"Topki","state":"Kemerovo"},"coordinates":[7389,3708]},{"type":"Point","properties":{"name":"Mariinsk","state":"Kemerovo"},"coordinates":[7448,3969]},{"type":"Point","properties":{"name":"Shira","state":"Khakass"},"coordinates":[7510,3486]},{"type":"Point","properties":{"name":"Cherepanovo","state":"Novosibirsk"},"coordinates":[7326,3414]},{"type":"Point","properties":{"name":"Kargat","state":"Novosibirsk"},"coordinates":[7240,3684]},{"type":"Point","properties":{"name":"Ob","state":"Novosibirsk"},"coordinates":[7308,3629]},{"type":"Point","properties":{"name":"Karasuk","state":"Novosibirsk"},"coordinates":[7177,3272]},{"type":"Point","properties":{"name":"Barabinsk","state":"Novosibirsk"},"coordinates":[7186,3729]},{"type":"Point","properties":{"name":"Tatarsk","state":"Novosibirsk"},"coordinates":[7120,3691]},{"type":"Point","properties":{"name":"Kaspiysk","state":"Dagestan"},"coordinates":[6330,229]},{"type":"Point","properties":{"name":"Derbent","state":"Dagestan"},"coordinates":[6348,0]},{"type":"Point","properties":{"name":"Buynaksk","state":"Dagestan"},"coordinates":[6316,218]},{"type":"Point","properties":{"name":"Yessey","state":"Evenk"},"coordinates":[7850,7410]},{"type":"Point","properties":{"name":"Ulkan","state":"Irkutsk"},"coordinates":[8006,3882]},{"type":"Point","properties":{"name":"Kirensk","state":"Irkutsk"},"coordinates":[8015,4410]},{"type":"Point","properties":{"name":"Zheleznogorsk Ilimskiy","state":"Irkutsk"},"coordinates":[7904,4071]},{"type":"Point","properties":{"name":"Vikhorevka","state":"Irkutsk"},"coordinates":[7824,3936]},{"type":"Point","properties":{"name":"Biryusinsk","state":"Irkutsk"},"coordinates":[7729,3898]},{"type":"Point","properties":{"name":"Kodinskiy","state":"Krasnoyarsk"},"coordinates":[7767,4666]},{"type":"Point","properties":{"name":"Artemovsk","state":"Krasnoyarsk"},"coordinates":[7607,3446]},{"type":"Point","properties":{"name":"Uyar","state":"Krasnoyarsk"},"coordinates":[7631,3856]},{"type":"Point","properties":{"name":"Uzhur","state":"Krasnoyarsk"},"coordinates":[7506,3721]},{"type":"Point","properties":{"name":"Sayanogorsk","state":"Krasnoyarsk"},"coordinates":[7550,3093]},{"type":"Point","properties":{"name":"Podkamennaya","state":"Krasnoyarsk"},"coordinates":[7514,5480]},{"type":"Point","properties":{"name":"Igarka","state":"Krasnoyarsk"},"coordinates":[7416,7125]},{"type":"Point","properties":{"name":"Agapa","state":"Taymyr"},"coordinates":[7490,8242]},{"type":"Point","properties":{"name":"Boyarka","state":"Taymyr"},"coordinates":[7720,8050]},{"type":"Point","properties":{"name":"Nordvik","state":"Taymyr"},"coordinates":[8110,8961]},{"type":"Point","properties":{"name":"Chelyuskin","state":"Taymyr"},"coordinates":[7908,9999]},{"type":"Point","properties":{"name":"Taksimo","state":"Buryat"},"coordinates":[8204,4002]},{"type":"Point","properties":{"name":"Gusinoozyorsk","state":"Buryat"},"coordinates":[7971,2586]},{"type":"Point","properties":{"name":"Aginskoye","state":"Aga Buryat"},"coordinates":[8194,2536]},{"type":"Point","properties":{"name":"Progress","state":"Amur"},"coordinates":[8615,2157]},{"type":"Point","properties":{"name":"Belogorsk","state":"Amur"},"coordinates":[8583,2485]},{"type":"Point","properties":{"name":"Nyukzha","state":"Amur"},"coordinates":[8392,4058]},{"type":"Point","properties":{"name":"Nerchinsk","state":"Chita"},"coordinates":[8251,2790]},{"type":"Point","properties":{"name":"Kavalerovo","state":"Primor'ye"},"coordinates":[8766,620]},{"type":"Point","properties":{"name":"Spassk Dalniy","state":"Primor'ye"},"coordinates":[8704,713]},{"type":"Point","properties":{"name":"Shalaurova","state":"Sakha (Yakutia)"},"coordinates":[8993,8738]},{"type":"Point","properties":{"name":"Logashkino","state":"Sakha (Yakutia)"},"coordinates":[9291,8074]},{"type":"Point","properties":{"name":"Ust Kuyga","state":"Sakha (Yakutia)"},"coordinates":[8781,7840]},{"type":"Point","properties":{"name":"Pokrovsk","state":"Sakha (Yakutia)"},"coordinates":[8601,5450]},{"type":"Point","properties":{"name":"Verkhnevilyuysk","state":"Sakha (Yakutia)"},"coordinates":[8356,5997]},{"type":"Point","properties":{"name":"Vitim","state":"Sakha (Yakutia)"},"coordinates":[8139,4877]},{"type":"Point","properties":{"name":"Olyokminsk","state":"Sakha (Yakutia)"},"coordinates":[8358,5172]},{"type":"Point","properties":{"name":"Tunguskhaya","state":"Sakha (Yakutia)"},"coordinates":[8493,6405]},{"type":"Point","properties":{"name":"Natara","state":"Sakha (Yakutia)"},"coordinates":[8456,7389]},{"type":"Point","properties":{"name":"Zhilinda","state":"Sakha (Yakutia)"},"coordinates":[8180,7873]},{"type":"Point","properties":{"name":"Trofimovsk","state":"Sakha (Yakutia)"},"coordinates":[8543,8564]},{"type":"Point","properties":{"name":"Tukchi","state":"Khabarovsk"},"coordinates":[8890,4293]},{"type":"Point","properties":{"name":"Amursk","state":"Khabarovsk"},"coordinates":[8817,2290]},{"type":"Point","properties":{"name":"Bikin","state":"Khabarovsk"},"coordinates":[8744,1335]},{"type":"Point","properties":{"name":"Vyazemskiy","state":"Khabarovsk"},"coordinates":[8758,1535]},{"type":"Point","properties":{"name":"Chegdomyn","state":"Khabarovsk"},"coordinates":[8710,2540]},{"type":"Point","properties":{"name":"Siglan","state":"Maga Buryatdan"},"coordinates":[9250,4760]},{"type":"Point","properties":{"name":"Karamken","state":"Maga Buryatdan"},"coordinates":[9215,5087]},{"type":"Point","properties":{"name":"Strelka","state":"Maga Buryatdan"},"coordinates":[9245,5555]},{"type":"Point","properties":{"name":"Severo Kurilsk","state":"Sakhalin"},"coordinates":[9352,2421]},{"type":"Point","properties":{"name":"Krasnogorsk","state":"Sakhalin"},"coordinates":[8962,1796]},{"type":"Point","properties":{"name":"Poronaysk","state":"Sakhalin"},"coordinates":[8990,2014]},{"type":"Point","properties":{"name":"Makarov","state":"Sakhalin"},"coordinates":[8982,1844]},{"type":"Point","properties":{"name":"Dolinsk","state":"Sakhalin"},"coordinates":[8982,1484]},{"type":"Point","properties":{"name":"Nevelsk","state":"Sakhalin"},"coordinates":[8956,1296]},{"type":"Point","properties":{"name":"Kudymkar","state":"Komi-Permyak"},"coordinates":[6526,4755]},{"type":"Point","properties":{"name":"Kungur","state":"Perm'"},"coordinates":[6590,4312]},{"type":"Point","properties":{"name":"Krasnokamsk","state":"Perm'"},"coordinates":[6557,4491]},{"type":"Point","properties":{"name":"Chusovoy","state":"Perm'"},"coordinates":[6614,4553]},{"type":"Point","properties":{"name":"Gubakha","state":"Perm'"},"coordinates":[6608,4714]},{"type":"Point","properties":{"name":"Utkholok","state":"Kamchatka"},"coordinates":[9384,4344]},{"type":"Point","properties":{"name":"Bol'sheretsk","state":"Kamchatka"},"coordinates":[9360,2911]},{"type":"Point","properties":{"name":"Il'pyrskiy","state":"Kamchatka"},"coordinates":[9577,5022]},{"type":"Point","properties":{"name":"Korf","state":"Kamchatka"},"coordinates":[9623,5124]},{"type":"Point","properties":{"name":"Kolpashevo","state":"Tomsk"},"coordinates":[7316,4555]},{"type":"Point","properties":{"name":"Omolon","state":"Chukchi Autonomous Okrug"},"coordinates":[9475,6503]},{"type":"Point","properties":{"name":"Pevek","state":"Chukchi Autonomous Okrug"},"coordinates":[9748,7751]},{"type":"Point","properties":{"name":"Umba","state":"Murmansk"},"coordinates":[5960,6905]},{"type":"Point","properties":{"name":"Kovda","state":"Murmansk"},"coordinates":[5919,6907]},{"type":"Point","properties":{"name":"Velikiy Novgorod","state":"Novgorod"},"coordinates":[5876,4610]},{"type":"Point","properties":{"name":"Velikiye Luki","state":"Pskov"},"coordinates":[5854,3999]},{"type":"Point","properties":{"name":"Belomorsk","state":"Karelia"},"coordinates":[5972,6300]},{"type":"Point","properties":{"name":"Kem","state":"Karelia"},"coordinates":[5967,6420]},{"type":"Point","properties":{"name":"Krasino","state":"Arkhangel'sk"},"coordinates":[6520,8040]},{"type":"Point","properties":{"name":"Matochkin Shar","state":"Arkhangel'sk"},"coordinates":[6576,8752]},{"type":"Point","properties":{"name":"Severodvinsk","state":"Arkhangel'sk"},"coordinates":[6113,6313]},{"type":"Point","properties":{"name":"Kursk","state":"Kursk"},"coordinates":[6012,2715]},{"type":"Point","properties":{"name":"Tula","state":"Tula"},"coordinates":[6052,3405]},{"type":"Point","properties":{"name":"Tambov","state":"Tambov"},"coordinates":[6158,2993]},{"type":"Point","properties":{"name":"Sterlitamak","state":"Bashkortostan"},"coordinates":[6563,3245]},{"type":"Point","properties":{"name":"Kurgan","state":"Kurgan"},"coordinates":[6824,3758]},{"type":"Point","properties":{"name":"Indiga","state":"Nenets"},"coordinates":[6369,7187]},{"type":"Point","properties":{"name":"Shoyna","state":"Nenets"},"coordinates":[6233,7237]},{"type":"Point","properties":{"name":"Novy Port","state":"Yamal-Nenets"},"coordinates":[7035,7190]},{"type":"Point","properties":{"name":"Salekhard","state":"Yamal-Nenets"},"coordinates":[6859,6864]},{"type":"Point","properties":{"name":"Gyda","state":"Yamal-Nenets"},"coordinates":[7190,8082]},{"type":"Point","properties":{"name":"Tazovskiy","state":"Yamal-Nenets"},"coordinates":[7196,7125]},{"type":"Point","properties":{"name":"Novy Urengoy","state":"Yamal-Nenets"},"coordinates":[7138,6737]},{"type":"Point","properties":{"name":"Nadym","state":"Yamal-Nenets"},"coordinates":[7024,6582]},{"type":"Point","properties":{"name":"Noyabrsk","state":"Yamal-Nenets"},"coordinates":[7110,5919]},{"type":"Point","properties":{"name":"Syktyvkar","state":"Komi"},"coordinates":[6419,5497]},{"type":"Point","properties":{"name":"Ukhta","state":"Komi"},"coordinates":[6499,6029]},{"type":"Point","properties":{"name":"Serov","state":"Sverdlovsk"},"coordinates":[6691,4923]},{"type":"Point","properties":{"name":"Cheboksary","state":"Chuvash"},"coordinates":[6320,3946]},{"type":"Point","properties":{"name":"Orsk","state":"Orenburg"},"coordinates":[6637,2566]},{"type":"Point","properties":{"name":"Balakovo","state":"Saratov"},"coordinates":[6335,2796]},{"type":"Point","properties":{"name":"Igrim","state":"Khanty-Mansiy"},"coordinates":[6798,5927]},{"type":"Point","properties":{"name":"Nyagan","state":"Khanty-Mansiy"},"coordinates":[6825,5633]},{"type":"Point","properties":{"name":"Khanty Mansiysk","state":"Khanty-Mansiy"},"coordinates":[6926,5312]},{"type":"Point","properties":{"name":"Nizhenvartovsk","state":"Khanty-Mansiy"},"coordinates":[7137,5293]},{"type":"Point","properties":{"name":"Numto","state":"Khanty-Mansiy"},"coordinates":[6991,6059]},{"type":"Point","properties":{"name":"Tara","state":"Omsk"},"coordinates":[7076,4161]},{"type":"Point","properties":{"name":"Tobolsk","state":"Tyumen'"},"coordinates":[6905,4526]},{"type":"Point","properties":{"name":"Rubtsovsk","state":"Altay"},"coordinates":[7266,2653]},{"type":"Point","properties":{"name":"Gorno Altaysk","state":"Gorno-Altay"},"coordinates":[7398,2777]},{"type":"Point","properties":{"name":"Prokopyevsk","state":"Kemerovo"},"coordinates":[7419,3321]},{"type":"Point","properties":{"name":"Makhachkala","state":"Dagestan"},"coordinates":[6327,259]},{"type":"Point","properties":{"name":"Tura","state":"Evenk"},"coordinates":[7796,6232]},{"type":"Point","properties":{"name":"Noginsk","state":"Evenk"},"coordinates":[7545,6288]},{"type":"Point","properties":{"name":"Yerema","state":"Irkutsk"},"coordinates":[8006,5138]},{"type":"Point","properties":{"name":"Tayshet","state":"Irkutsk"},"coordinates":[7733,3889]},{"type":"Point","properties":{"name":"Usolye Sibirskoye","state":"Irkutsk"},"coordinates":[7891,3002]},{"type":"Point","properties":{"name":"Slyudyanka","state":"Irkutsk"},"coordinates":[7893,2691]},{"type":"Point","properties":{"name":"Cheremkhovo","state":"Irkutsk"},"coordinates":[7875,3113]},{"type":"Point","properties":{"name":"Zima","state":"Irkutsk"},"coordinates":[7846,3330]},{"type":"Point","properties":{"name":"Tulun","state":"Irkutsk"},"coordinates":[7805,3507]},{"type":"Point","properties":{"name":"Nizhneudinsk","state":"Irkutsk"},"coordinates":[7762,3600]},{"type":"Point","properties":{"name":"Ust Kut","state":"Irkutsk"},"coordinates":[7950,4124]},{"type":"Point","properties":{"name":"Bodaybo","state":"Irkutsk"},"coordinates":[8189,4460]},{"type":"Point","properties":{"name":"Komsa","state":"Krasnoyarsk"},"coordinates":[7490,5555]},{"type":"Point","properties":{"name":"Kansk","state":"Krasnoyarsk"},"coordinates":[7670,3963]},{"type":"Point","properties":{"name":"Achinsk","state":"Krasnoyarsk"},"coordinates":[7525,3985]},{"type":"Point","properties":{"name":"Yeniseysk","state":"Krasnoyarsk"},"coordinates":[7571,4597]},{"type":"Point","properties":{"name":"Lesosibirsk","state":"Krasnoyarsk"},"coordinates":[7580,4538]},{"type":"Point","properties":{"name":"Turukhansk","state":"Krasnoyarsk"},"coordinates":[7454,6668]},{"type":"Point","properties":{"name":"Vorontsovo","state":"Taymyr"},"coordinates":[7332,8311]},{"type":"Point","properties":{"name":"Starorybnoye","state":"Taymyr"},"coordinates":[7923,8611]},{"type":"Point","properties":{"name":"Mikhaylova","state":"Taymyr"},"coordinates":[7427,9264]},{"type":"Point","properties":{"name":"Dudinka","state":"Taymyr"},"coordinates":[7406,7672]},{"type":"Point","properties":{"name":"Teli","state":"Tuva"},"coordinates":[7517,2517]},{"type":"Point","properties":{"name":"Novyy Uoyin","state":"Buryat"},"coordinates":[8116,3947]},{"type":"Point","properties":{"name":"Bagdarin","state":"Buryat"},"coordinates":[8168,3470]},{"type":"Point","properties":{"name":"Severobaykalsk","state":"Buryat"},"coordinates":[8049,3807]},{"type":"Point","properties":{"name":"Kyakhta","state":"Buryat"},"coordinates":[7969,2326]},{"type":"Point","properties":{"name":"Svobodnyy","state":"Amur"},"coordinates":[8573,2621]},{"type":"Point","properties":{"name":"Zeya","state":"Amur"},"coordinates":[8549,3279]},{"type":"Point","properties":{"name":"Magdagachi","state":"Amur"},"coordinates":[8508,3194]},{"type":"Point","properties":{"name":"Shimanovsk","state":"Amur"},"coordinates":[8561,2789]},{"type":"Point","properties":{"name":"Skovorodino","state":"Amur"},"coordinates":[8456,3344]},{"type":"Point","properties":{"name":"Tynda","state":"Amur"},"coordinates":[8478,3678]},{"type":"Point","properties":{"name":"Olovyannaya","state":"Chita"},"coordinates":[8223,2493]},{"type":"Point","properties":{"name":"Mogocha","state":"Chita"},"coordinates":[8340,3274]},{"type":"Point","properties":{"name":"Krasnokamensk","state":"Chita"},"coordinates":[8292,2246]},{"type":"Point","properties":{"name":"Borzya","state":"Chita"},"coordinates":[8250,2336]},{"type":"Point","properties":{"name":"Khilok","state":"Chita"},"coordinates":[8081,2606]},{"type":"Point","properties":{"name":"Nakhodka","state":"Primor'ye"},"coordinates":[8706,219]},{"type":"Point","properties":{"name":"Ussuriysk","state":"Primor'ye"},"coordinates":[8682,489]},{"type":"Point","properties":{"name":"Lesozavodsk","state":"Primor'ye"},"coordinates":[8721,958]},{"type":"Point","properties":{"name":"Kavache","state":"Sakha (Yakutia)"},"coordinates":[8798,8041]},{"type":"Point","properties":{"name":"Verkhoyansk","state":"Sakha (Yakutia)"},"coordinates":[8720,7147]},{"type":"Point","properties":{"name":"Cherskiy","state":"Sakha (Yakutia)"},"coordinates":[9498,7485]},{"type":"Point","properties":{"name":"Srednekolymsk","state":"Sakha (Yakutia)"},"coordinates":[9286,7120]},{"type":"Point","properties":{"name":"Zyryanka","state":"Sakha (Yakutia)"},"coordinates":[9207,6639]},{"type":"Point","properties":{"name":"Eldikan","state":"Sakha (Yakutia)"},"coordinates":[8770,5255]},{"type":"Point","properties":{"name":"Chagda","state":"Sakha (Yakutia)"},"coordinates":[8734,5059]},{"type":"Point","properties":{"name":"Khandyga","state":"Sakha (Yakutia)"},"coordinates":[8781,5779]},{"type":"Point","properties":{"name":"Ust Maya","state":"Sakha (Yakutia)"},"coordinates":[8752,5159]},{"type":"Point","properties":{"name":"Neryungri","state":"Sakha (Yakutia)"},"coordinates":[8478,4098]},{"type":"Point","properties":{"name":"Chernyshevskiy","state":"Sakha (Yakutia)"},"coordinates":[8137,5876]},{"type":"Point","properties":{"name":"Terbyas","state":"Sakha (Yakutia)"},"coordinates":[8362,6258]},{"type":"Point","properties":{"name":"Vilyuysk","state":"Sakha (Yakutia)"},"coordinates":[8392,6084]},{"type":"Point","properties":{"name":"Sangar","state":"Sakha (Yakutia)"},"coordinates":[8555,6131]},{"type":"Point","properties":{"name":"Menkere","state":"Sakha (Yakutia)"},"coordinates":[8440,7271]},{"type":"Point","properties":{"name":"Saskylakh","state":"Sakha (Yakutia)"},"coordinates":[8182,8373]},{"type":"Point","properties":{"name":"Govorovo","state":"Sakha (Yakutia)"},"coordinates":[8514,7894]},{"type":"Point","properties":{"name":"Sagastyr","state":"Sakha (Yakutia)"},"coordinates":[8530,8782]},{"type":"Point","properties":{"name":"Ust Olensk","state":"Sakha (Yakutia)"},"coordinates":[8340,8676]},{"type":"Point","properties":{"name":"Suntar","state":"Sakha (Yakutia)"},"coordinates":[8281,5632]},{"type":"Point","properties":{"name":"Olenek","state":"Sakha (Yakutia)"},"coordinates":[8136,7422]},{"type":"Point","properties":{"name":"Udachnyy","state":"Sakha (Yakutia)"},"coordinates":[8135,6832]},{"type":"Point","properties":{"name":"Birobidzhan","state":"Yevrey"},"coordinates":[8708,1890]},{"type":"Point","properties":{"name":"Khakhar","state":"Khabarovsk"},"coordinates":[8777,4377]},{"type":"Point","properties":{"name":"De Kastri","state":"Khabarovsk"},"coordinates":[8926,2638]},{"type":"Point","properties":{"name":"Chumikan","state":"Khabarovsk"},"coordinates":[8773,3548]},{"type":"Point","properties":{"name":"Komsomolsk na Amure","state":"Khabarovsk"},"coordinates":[8821,2383]},{"type":"Point","properties":{"name":"Ayan","state":"Khabarovsk"},"coordinates":[8853,4037]},{"type":"Point","properties":{"name":"Nikolayevsk na Amure","state":"Khabarovsk"},"coordinates":[8924,3110]},{"type":"Point","properties":{"name":"Savetskaya Gavan","state":"Khabarovsk"},"coordinates":[8912,1938]},{"type":"Point","properties":{"name":"Evensk","state":"Maga Buryatdan"},"coordinates":[9440,5578]},{"type":"Point","properties":{"name":"Palatka","state":"Maga Buryatdan"},"coordinates":[9208,5059]},{"type":"Point","properties":{"name":"Omsukchan","state":"Maga Buryatdan"},"coordinates":[9344,5741]},{"type":"Point","properties":{"name":"Susuman","state":"Maga Buryatdan"},"coordinates":[9131,5812]},{"type":"Point","properties":{"name":"Nogliki","state":"Sakhalin"},"coordinates":[8992,2741]},{"type":"Point","properties":{"name":"Aleksandrovsk Sakhalinskiy","state":"Sakhalin"},"coordinates":[8964,2479]},{"type":"Point","properties":{"name":"Korsakov","state":"Sakhalin"},"coordinates":[8981,1286]},{"type":"Point","properties":{"name":"Manily","state":"Kamchatka"},"coordinates":[9609,5746]},{"type":"Point","properties":{"name":"Oktyabrskiy","state":"Kamchatka"},"coordinates":[9356,2974]},{"type":"Point","properties":{"name":"Klyuchi","state":"Kamchatka"},"coordinates":[9485,3994]},{"type":"Point","properties":{"name":"Ust Kamchatsk","state":"Kamchatka"},"coordinates":[9529,3969]},{"type":"Point","properties":{"name":"Provideniya","state":"Chukchi Autonomous Okrug"},"coordinates":[177,6271]},{"type":"Point","properties":{"name":"Uelen","state":"Chukchi Autonomous Okrug"},"coordinates":[272,6757]},{"type":"Point","properties":{"name":"Kandalaksha","state":"Murmansk"},"coordinates":[5907,7040]},{"type":"Point","properties":{"name":"Vyborg","state":"Leningrad"},"coordinates":[5805,5228]},{"type":"Point","properties":{"name":"Kondopoga","state":"Karelia"},"coordinates":[5959,5650]},{"type":"Point","properties":{"name":"Rusanovo","state":"Arkhangel'sk"},"coordinates":[6574,8003]},{"type":"Point","properties":{"name":"Mezen","state":"Arkhangel'sk"},"coordinates":[6236,6672]},{"type":"Point","properties":{"name":"Velsk","state":"Arkhangel'sk"},"coordinates":[6176,5330]},{"type":"Point","properties":{"name":"Kotlas","state":"Arkhangel'sk"},"coordinates":[6304,5385]},{"type":"Point","properties":{"name":"Onega","state":"Arkhangel'sk"},"coordinates":[6064,6132]},{"type":"Point","properties":{"name":"Ivanovo","state":"Ivanovo"},"coordinates":[6146,4193]},{"type":"Point","properties":{"name":"Kostroma","state":"Kostroma"},"coordinates":[6144,4406]},{"type":"Point","properties":{"name":"Velikiy Ustyug","state":"Vologda"},"coordinates":[6293,5247]},{"type":"Point","properties":{"name":"Lipetsk","state":"Lipetsk"},"coordinates":[6108,2962]},{"type":"Point","properties":{"name":"Orel","state":"Orel"},"coordinates":[6008,3060]},{"type":"Point","properties":{"name":"Volgodonsk","state":"Rostov"},"coordinates":[6178,1529]},{"type":"Point","properties":{"name":"Belgorod","state":"Belgorod"},"coordinates":[6023,2404]},{"type":"Point","properties":{"name":"Novorossiysk","state":"Krasnodar"},"coordinates":[6056,749]},{"type":"Point","properties":{"name":"Vladimir","state":"Vladimir"},"coordinates":[6129,3946]},{"type":"Point","properties":{"name":"Birsk","state":"Bashkortostan"},"coordinates":[6551,3748]},{"type":"Point","properties":{"name":"Zlatoust","state":"Chelyabinsk"},"coordinates":[6665,3678]},{"type":"Point","properties":{"name":"Amderma","state":"Nenets"},"coordinates":[6722,7769]},{"type":"Point","properties":{"name":"Naryan Mar","state":"Nenets"},"coordinates":[6482,7175]},{"type":"Point","properties":{"name":"Inta","state":"Komi"},"coordinates":[6680,6724]},{"type":"Point","properties":{"name":"Usinsk","state":"Komi"},"coordinates":[6603,6692]},{"type":"Point","properties":{"name":"Pechora","state":"Komi"},"coordinates":[6597,6478]},{"type":"Point","properties":{"name":"Pervouralsk","state":"Sverdlovsk"},"coordinates":[6674,4165]},{"type":"Point","properties":{"name":"Izhevsk","state":"Udmurt"},"coordinates":[6486,4148]},{"type":"Point","properties":{"name":"Akhtubinsk","state":"Astrakhan'"},"coordinates":[6290,1744]},{"type":"Point","properties":{"name":"Elista","state":"Kalmyk"},"coordinates":[6235,1198]},{"type":"Point","properties":{"name":"Krasnoarmeysk","state":"Saratov"},"coordinates":[6277,2512]},{"type":"Point","properties":{"name":"Berezniki","state":"Perm'"},"coordinates":[6585,4868]},{"type":"Point","properties":{"name":"Naltchik","state":"Kabardin-Balkar"},"coordinates":[6219,404]},{"type":"Point","properties":{"name":"Stavropol","state":"Stavropol'"},"coordinates":[6173,839]},{"type":"Point","properties":{"name":"Ugolnye Kopi","state":"Chukchi Autonomous Okrug"},"coordinates":[9954,6358]},{"type":"Point","properties":{"name":"Kaliningrad","state":"Kaliningrad"},"coordinates":[5575,3545]},{"type":"Point","properties":{"name":"Pskov","state":"Pskov"},"coordinates":[5793,4423]},{"type":"Point","properties":{"name":"Bryansk","state":"Bryansk"},"coordinates":[5963,3141]},{"type":"Point","properties":{"name":"Smolensk","state":"Smolensk"},"coordinates":[5896,3568]},{"type":"Point","properties":{"name":"Petrozavodsk","state":"Karelia"},"coordinates":[5959,5550]},{"type":"Point","properties":{"name":"Tver","state":"Tver'"},"coordinates":[6003,4151]},{"type":"Point","properties":{"name":"Vologda","state":"Vologda"},"coordinates":[6116,4810]},{"type":"Point","properties":{"name":"Yaroslavl","state":"Yaroslavl'"},"coordinates":[6114,4364]},{"type":"Point","properties":{"name":"Rostov","state":"Rostov"},"coordinates":[6110,1452]},{"type":"Point","properties":{"name":"Sochi","state":"Krasnodar"},"coordinates":[6110,430]},{"type":"Point","properties":{"name":"Krasnodar","state":"Krasnodar"},"coordinates":[6090,831]},{"type":"Point","properties":{"name":"Penza","state":"Penza"},"coordinates":[6257,3119]},{"type":"Point","properties":{"name":"Ryazan","state":"Ryazan'"},"coordinates":[6110,3522]},{"type":"Point","properties":{"name":"Voronezh","state":"Voronezh"},"coordinates":[6097,2713]},{"type":"Point","properties":{"name":"Magnitogorsk","state":"Chelyabinsk"},"coordinates":[6647,3187]},{"type":"Point","properties":{"name":"Chelyabinsk","state":"Chelyabinsk"},"coordinates":[6715,3673]},{"type":"Point","properties":{"name":"Vorkuta","state":"Komi"},"coordinates":[6787,7134]},{"type":"Point","properties":{"name":"Kirov","state":"Kirov"},"coordinates":[6387,4636]},{"type":"Point","properties":{"name":"Nizhny Tagil","state":"Sverdlovsk"},"coordinates":[6674,4448]},{"type":"Point","properties":{"name":"Astrakhan","state":"Astrakhan'"},"coordinates":[6342,1203]},{"type":"Point","properties":{"name":"Orenburg","state":"Orenburg"},"coordinates":[6539,2726]},{"type":"Point","properties":{"name":"Saratov","state":"Saratov"},"coordinates":[6286,2671]},{"type":"Point","properties":{"name":"Ulyanovsk","state":"Ul'yanovsk"},"coordinates":[6352,3441]},{"type":"Point","properties":{"name":"Omsk","state":"Omsk"},"coordinates":[7048,3627]},{"type":"Point","properties":{"name":"Tyumen","state":"Tyumen'"},"coordinates":[6829,4229]},{"type":"Point","properties":{"name":"Novokuznetsk","state":"Kemerovo"},"coordinates":[7431,3279]},{"type":"Point","properties":{"name":"Kemerovo","state":"Kemerovo"},"coordinates":[7402,3724]},{"type":"Point","properties":{"name":"Groznyy","state":"Chechnya"},"coordinates":[6277,354]},{"type":"Point","properties":{"name":"Ust-Ulimsk","state":"Irkutsk"},"coordinates":[7863,4467]},{"type":"Point","properties":{"name":"Angarsk","state":"Irkutsk"},"coordinates":[7899,2945]},{"type":"Point","properties":{"name":"Abakan","state":"Krasnoyarsk"},"coordinates":[7551,3266]},{"type":"Point","properties":{"name":"Norilsk","state":"Taymyr"},"coordinates":[7461,7650]},{"type":"Point","properties":{"name":"Khatanga","state":"Taymyr"},"coordinates":[7858,8407]},{"type":"Point","properties":{"name":"Kyzyl","state":"Tuva"},"coordinates":[7633,2706]},{"type":"Point","properties":{"name":"Ulan Ude","state":"Buryat"},"coordinates":[8002,2739]},{"type":"Point","properties":{"name":"Blagoveshchensk","state":"Amur"},"coordinates":[8557,2302]},{"type":"Point","properties":{"name":"Bukachacha","state":"Chita"},"coordinates":[8261,3064]},{"type":"Point","properties":{"name":"Dalnegorsk","state":"Primor'ye"},"coordinates":[8779,695]},{"type":"Point","properties":{"name":"Ambarchik","state":"Sakha (Yakutia)"},"coordinates":[9526,7737]},{"type":"Point","properties":{"name":"Batagay","state":"Sakha (Yakutia)"},"coordinates":[8754,7178]},{"type":"Point","properties":{"name":"Chokurdakh","state":"Sakha (Yakutia)"},"coordinates":[9124,8009]},{"type":"Point","properties":{"name":"Ust Nera","state":"Sakha (Yakutia)"},"coordinates":[8993,6312]},{"type":"Point","properties":{"name":"Lensk","state":"Sakha (Yakutia)"},"coordinates":[8206,5234]},{"type":"Point","properties":{"name":"Aldan","state":"Sakha (Yakutia)"},"coordinates":[8497,4639]},{"type":"Point","properties":{"name":"Mirnyy","state":"Sakha (Yakutia)"},"coordinates":[8178,5743]},{"type":"Point","properties":{"name":"Zhigansk","state":"Sakha (Yakutia)"},"coordinates":[8441,6929]},{"type":"Point","properties":{"name":"Okhotsk","state":"Khabarovsk"},"coordinates":[8994,4858]},{"type":"Point","properties":{"name":"Khabarovsk","state":"Khabarovsk"},"coordinates":[8768,1794]},{"type":"Point","properties":{"name":"Okha","state":"Sakhalin"},"coordinates":[8986,3229]},{"type":"Point","properties":{"name":"Yuzhno Sakhalinsk","state":"Sakhalin"},"coordinates":[8980,1376]},{"type":"Point","properties":{"name":"Tomsk","state":"Tomsk"},"coordinates":[7371,4048]},{"type":"Point","properties":{"name":"Anadyr","state":"Chukchi Autonomous Okrug"},"coordinates":[9948,6359]},{"type":"Point","properties":{"name":"Murmansk","state":"Murmansk"},"coordinates":[5926,7546]},{"type":"Point","properties":{"name":"Archangel","state":"Arkhangel'sk"},"coordinates":[6133,6314]},{"type":"Point","properties":{"name":"Nizhny Novgorod","state":"Nizhegorod"},"coordinates":[6229,4003]},{"type":"Point","properties":{"name":"Volgograd","state":"Volgograd"},"coordinates":[6243,1866]},{"type":"Point","properties":{"name":"Ufa","state":"Bashkortostan"},"coordinates":[6565,3571]},{"type":"Point","properties":{"name":"Yekaterinburg","state":"Sverdlovsk"},"coordinates":[6692,4148]},{"type":"Point","properties":{"name":"Samara","state":"Samara"},"coordinates":[6401,3123]},{"type":"Point","properties":{"name":"Kazan","state":"Tatarstan"},"coordinates":[6372,3840]},{"type":"Point","properties":{"name":"Surgut","state":"Khanty-Mansiy"},"coordinates":[7049,5384]},{"type":"Point","properties":{"name":"Barnaul","state":"Altay"},"coordinates":[7337,3168]},{"type":"Point","properties":{"name":"Novosibirsk","state":"Novosibirsk"},"coordinates":[7315,3638]},{"type":"Point","properties":{"name":"Bratsk","state":"Irkutsk"},"coordinates":[7834,3953]},{"type":"Point","properties":{"name":"Irkutsk","state":"Irkutsk"},"coordinates":[7908,2878]},{"type":"Point","properties":{"name":"Krasnoyarsk","state":"Krasnoyarsk"},"coordinates":[7591,3914]},{"type":"Point","properties":{"name":"Dickson","state":"Taymyr"},"coordinates":[7247,8819]},{"type":"Point","properties":{"name":"Chita","state":"Chita"},"coordinates":[8165,2803]},{"type":"Point","properties":{"name":"Vladivostok","state":"Primor'ye"},"coordinates":[8679,301]},{"type":"Point","properties":{"name":"Nizhneyansk","state":"Sakha (Yakutia)"},"coordinates":[8794,8237]},{"type":"Point","properties":{"name":"Yakutsk","state":"Sakha (Yakutia)"},"coordinates":[8618,5602]},{"type":"Point","properties":{"name":"Tiksi","state":"Sakha (Yakutia)"},"coordinates":[8593,8291]},{"type":"Point","properties":{"name":"Magadan","state":"Maga Buryatdan"},"coordinates":[9205,4912]},{"type":"Point","properties":{"name":"Perm","state":"Perm'"},"coordinates":[6571,4471]},{"type":"Point","properties":{"name":"Palana","state":"Kamchatka"},"coordinates":[9460,4774]},{"type":"Point","properties":{"name":"Petropavlovsk Kamchatskiy","state":"Kamchatka"},"coordinates":[9423,3086]},{"type":"Point","properties":{"name":"St. Petersburg","state":"City of St. Petersburg"},"coordinates":[5848,5015]},{"type":"Point","properties":{"name":"Moscow","state":"Moskva"},"coordinates":[6051,3841]}]}},"arcs":[],"transform":{"scale":[0.035893253957700794,0.0035662733347045007],"translate":[-179.58997888396897,42.05780621242434]}}