{"type":"Topology","objects":{"cities":{"type":"GeometryCollection","geometries":[{"type":"Point","properties":{"name":"Yumen","state":"Gansu"},"coordinates":[3816,6632]},{"type":"Point","properties":{"name":"Linxia","state":"Gansu"},"coordinates":[4775,5331]},{"type":"Point","properties":{"name":"Zhuozhou","state":"Beijing"},"coordinates":[6983,6542]},{"type":"Point","properties":{"name":"Sanming","state":"Fujian"},"coordinates":[7296,2451]},{"type":"Point","properties":{"name":"Huizhou","state":"Guangdong"},"coordinates":[6739,1482]},{"type":"Point","properties":{"name":"Chaozhou","state":"Guangdong"},"coordinates":[7130,1667]},{"type":"Point","properties":{"name":"Gyangze","state":"Xizang"},"coordinates":[2396,3287]},{"type":"Point","properties":{"name":"Dali","state":"Shaanxi"},"coordinates":[5956,5084]},{"type":"Point","properties":{"name":"Yangquan","state":"Shanxi"},"coordinates":[6593,6029]},{"type":"Point","properties":{"name":"Shiyan","state":"Hubei"},"coordinates":[6104,4400]},{"type":"Point","properties":{"name":"Danjiangkou","state":"Hubei"},"coordinates":[6230,4384]},{"type":"Point","properties":{"name":"Shashi","state":"Hubei"},"coordinates":[6358,3708]},{"type":"Point","properties":{"name":"Anlu","state":"Hubei"},"coordinates":[6611,4000]},{"type":"Point","properties":{"name":"Zixing","state":"Hunan"},"coordinates":[6563,2371]},{"type":"Point","properties":{"name":"Deyang","state":"Sichuan"},"coordinates":[4985,3958]},{"type":"Point","properties":{"name":"Tengchong","state":"Yunnan"},"coordinates":[3945,2083]},{"type":"Point","properties":{"name":"Mengzi","state":"Yunnan"},"coordinates":[4811,1569]},{"type":"Point","properties":{"name":"Chuxiong","state":"Yunnan"},"coordinates":[4485,2084]},{"type":"Point","properties":{"name":"Hengshui","state":"Hebei"},"coordinates":[6967,5983]},{"type":"Point","properties":{"name":"Xuanhua","state":"Hebei"},"coordinates":[6848,6867]},{"type":"Point","properties":{"name":"Luohe","state":"Henan"},"coordinates":[6674,4707]},{"type":"Point","properties":{"name":"Beipiao","state":"Liaoning"},"coordinates":[7854,7240]},{"type":"Point","properties":{"name":"Wafangdian","state":"Liaoning"},"coordinates":[8071,6569]},{"type":"Point","properties":{"name":"Zhucheng","state":"Shandong"},"coordinates":[7612,5451]},{"type":"Point","properties":{"name":"Hangu","state":"Tianjin"},"coordinates":[7331,6448]},{"type":"Point","properties":{"name":"Xinyi","state":"Jiangsu"},"coordinates":[7431,4956]},{"type":"Point","properties":{"name":"Yangzhou","state":"Jiangsu"},"coordinates":[7621,4347]},{"type":"Point","properties":{"name":"Linhai","state":"Zhejiang"},"coordinates":[7917,3256]},{"type":"Point","properties":{"name":"Huangyan","state":"Zhejiang"},"coordinates":[7940,3195]},{"type":"Point","properties":{"name":"Daan","state":"Jilin"},"coordinates":[8475,8375]},{"type":"Point","properties":{"name":"Changling","state":"Jilin"},"coordinates":[8420,7997]},{"type":"Point","properties":{"name":"Tonghua","state":"Jilin"},"coordinates":[8729,7200]},{"type":"Point","properties":{"name":"Baishan","state":"Jilin"},"coordinates":[8848,7268]},{"type":"Point","properties":{"name":"Yanji","state":"Jilin"},"coordinates":[9389,7570]},{"type":"Point","properties":{"name":"Ergun Zuoqi","state":"Nei Mongol"},"coordinates":[7987,9999]},{"type":"Point","properties":{"name":"Shangdu","state":"Nei Mongol"},"coordinates":[6587,7160]},{"type":"Point","properties":{"name":"Orongen Zizhiqi","state":"Nei Mongol"},"coordinates":[8373,9932]},{"type":"Point","properties":{"name":"Zalantun","state":"Nei Mongol"},"coordinates":[8198,9143]},{"type":"Point","properties":{"name":"Wuchuan","state":"Nei Mongol"},"coordinates":[6220,7021]},{"type":"Point","properties":{"name":"Hanggin Houqi","state":"Nei Mongol"},"coordinates":[5466,6956]},{"type":"Point","properties":{"name":"Anda","state":"Heilongjiang"},"coordinates":[8654,8651]},{"type":"Point","properties":{"name":"Qinggang","state":"Heilongjiang"},"coordinates":[8790,8741]},{"type":"Point","properties":{"name":"Angangxi","state":"Heilongjiang"},"coordinates":[8387,8885]},{"type":"Point","properties":{"name":"Hulan Ergi","state":"Heilongjiang"},"coordinates":[8354,8900]},{"type":"Point","properties":{"name":"Qingan","state":"Heilongjiang"},"coordinates":[9038,8796]},{"type":"Point","properties":{"name":"Baiquan","state":"Heilongjiang"},"coordinates":[8787,9021]},{"type":"Point","properties":{"name":"Suileng","state":"Heilongjiang"},"coordinates":[8967,8912]},{"type":"Point","properties":{"name":"Linkou","state":"Heilongjiang"},"coordinates":[9518,8308]},{"type":"Point","properties":{"name":"Longxi","state":"Gansu"},"coordinates":[5027,5161]},{"type":"Point","properties":{"name":"Pingliang","state":"Gansu"},"coordinates":[5385,5310]},{"type":"Point","properties":{"name":"Anxi","state":"Gansu"},"coordinates":[3477,6838]},{"type":"Point","properties":{"name":"Minxian","state":"Gansu"},"coordinates":[4921,4973]},{"type":"Point","properties":{"name":"Jinchang","state":"Gansu"},"coordinates":[4595,6221]},{"type":"Point","properties":{"name":"Guide","state":"Gansu"},"coordinates":[4463,5468]},{"type":"Point","properties":{"name":"Qinzhou","state":"Guangxi"},"coordinates":[5725,1135]},{"type":"Point","properties":{"name":"Pingxiang","state":"Guangxi"},"coordinates":[5399,1180]},{"type":"Point","properties":{"name":"Yishan","state":"Guangxi"},"coordinates":[5733,1919]},{"type":"Point","properties":{"name":"Beihai","state":"Guangxi"},"coordinates":[5809,990]},{"type":"Point","properties":{"name":"Hechi","state":"Guangxi"},"coordinates":[5899,1487]},{"type":"Point","properties":{"name":"Tongren","state":"Guizhou"},"coordinates":[5815,2896]},{"type":"Point","properties":{"name":"Fengjie","state":"Chongqing"},"coordinates":[5883,3932]},{"type":"Point","properties":{"name":"Changping","state":"Beijing"},"coordinates":[7053,6753]},{"type":"Point","properties":{"name":"Shaowu","state":"Fujian"},"coordinates":[7282,2780]},{"type":"Point","properties":{"name":"Longyan","state":"Fujian"},"coordinates":[7200,2128]},{"type":"Point","properties":{"name":"Zhangzhou","state":"Fujian"},"coordinates":[7312,1925]},{"type":"Point","properties":{"name":"Putian","state":"Fujian"},"coordinates":[7549,2205]},{"type":"Point","properties":{"name":"Fuan","state":"Fujian"},"coordinates":[7654,2709]},{"type":"Point","properties":{"name":"Changting","state":"Fujian"},"coordinates":[7075,2339]},{"type":"Point","properties":{"name":"Nanping","state":"Fujian"},"coordinates":[7400,2574]},{"type":"Point","properties":{"name":"Ninde","state":"Fujian"},"coordinates":[7638,2589]},{"type":"Point","properties":{"name":"Jieshou","state":"Anhui"},"coordinates":[6905,4609]},{"type":"Point","properties":{"name":"Tongling","state":"Anhui"},"coordinates":[7332,3902]},{"type":"Point","properties":{"name":"Maanshan","state":"Anhui"},"coordinates":[7454,4142]},{"type":"Point","properties":{"name":"Fuyang","state":"Anhui"},"coordinates":[6988,4501]},{"type":"Point","properties":{"name":"Yangjiang","state":"Guangdong"},"coordinates":[6313,1104]},{"type":"Point","properties":{"name":"Meizhou","state":"Guangdong"},"coordinates":[7040,1857]},{"type":"Point","properties":{"name":"Heyuan","state":"Guangdong"},"coordinates":[6788,1682]},{"type":"Point","properties":{"name":"Qingyuan","state":"Guangdong"},"coordinates":[6499,1673]},{"type":"Point","properties":{"name":"Zhaoqing","state":"Guangdong"},"coordinates":[6397,1473]},{"type":"Point","properties":{"name":"Lianxian","state":"Guangdong"},"coordinates":[6385,2005]},{"type":"Point","properties":{"name":"Jiangmen","state":"Guangdong"},"coordinates":[6507,1329]},{"type":"Point","properties":{"name":"Maoming","state":"Guangdong"},"coordinates":[6120,1126]},{"type":"Point","properties":{"name":"Gar","state":"Xizang"},"coordinates":[704,4286]},{"type":"Point","properties":{"name":"Turpan","state":"Xinjiang Uygur"},"coordinates":[2314,7586]},{"type":"Point","properties":{"name":"Quiemo","state":"Xinjiang Uygur"},"coordinates":[1677,6110]},{"type":"Point","properties":{"name":"Koktokay","state":"Xinjiang Uygur"},"coordinates":[2367,8836]},{"type":"Point","properties":{"name":"Hancheng","state":"Shaanxi"},"coordinates":[6043,5291]},{"type":"Point","properties":{"name":"Weinan","state":"Shaanxi"},"coordinates":[5880,4993]},{"type":"Point","properties":{"name":"Shuozhou","state":"Shanxi"},"coordinates":[6392,6469]},{"type":"Point","properties":{"name":"Xinzhou","state":"Shanxi"},"coordinates":[6444,6195]},{"type":"Point","properties":{"name":"Jincheng","state":"Shanxi"},"coordinates":[6464,5301]},{"type":"Point","properties":{"name":"Jiexiu","state":"Shanxi"},"coordinates":[6300,5774]},{"type":"Point","properties":{"name":"Changzhi","state":"Shanxi"},"coordinates":[6512,5511]},{"type":"Point","properties":{"name":"Guangshui","state":"Hubei"},"coordinates":[6669,4108]},{"type":"Point","properties":{"name":"Jingmen","state":"Hubei"},"coordinates":[6336,3926]},{"type":"Point","properties":{"name":"Zicheng","state":"Hubei"},"coordinates":[6230,3702]},{"type":"Point","properties":{"name":"Shishou","state":"Hubei"},"coordinates":[6388,3517]},{"type":"Point","properties":{"name":"Xiaogan","state":"Hubei"},"coordinates":[6651,3892]},{"type":"Point","properties":{"name":"Puqi","state":"Hubei"},"coordinates":[6648,3524]},{"type":"Point","properties":{"name":"Yunxian","state":"Hubei"},"coordinates":[6110,4473]},{"type":"Point","properties":{"name":"Jinshi","state":"Hunan"},"coordinates":[6292,3496]},{"type":"Point","properties":{"name":"Chenzhou","state":"Hunan"},"coordinates":[6499,2318]},{"type":"Point","properties":{"name":"Zhijiang","state":"Hunan"},"coordinates":[5911,2823]},{"type":"Point","properties":{"name":"Xiangtan","state":"Hunan"},"coordinates":[6476,2949]},{"type":"Point","properties":{"name":"Zigong","state":"Sichuan"},"coordinates":[5052,3426]},{"type":"Point","properties":{"name":"Yaan","state":"Sichuan"},"coordinates":[4754,3604]},{"type":"Point","properties":{"name":"Langzhong","state":"Sichuan"},"coordinates":[5260,4094]},{"type":"Point","properties":{"name":"Rongzhag","state":"Sichuan"},"coordinates":[4550,3902]},{"type":"Point","properties":{"name":"Simao","state":"Yunnan"},"coordinates":[4385,1390]},{"type":"Point","properties":{"name":"Wenshan","state":"Yunnan"},"coordinates":[4959,1572]},{"type":"Point","properties":{"name":"Zhanyi","state":"Yunnan"},"coordinates":[4883,2257]},{"type":"Point","properties":{"name":"Huize","state":"Yunnan"},"coordinates":[4813,2488]},{"type":"Point","properties":{"name":"Chengde","state":"Hebei"},"coordinates":[7358,6979]},{"type":"Point","properties":{"name":"Cangzhou","state":"Hebei"},"coordinates":[7172,6167]},{"type":"Point","properties":{"name":"Baoding","state":"Hebei"},"coordinates":[6928,6337]},{"type":"Point","properties":{"name":"Huanghua","state":"Hebei"},"coordinates":[7253,6183]},{"type":"Point","properties":{"name":"Dingzhou","state":"Hebei"},"coordinates":[6844,6223]},{"type":"Point","properties":{"name":"Nangong","state":"Hebei"},"coordinates":[6909,5875]},{"type":"Point","properties":{"name":"Linqing","state":"Hebei"},"coordinates":[6963,5716]},{"type":"Point","properties":{"name":"Xiangtai","state":"Hebei"},"coordinates":[6756,5777]},{"type":"Point","properties":{"name":"Puyang","state":"Henan"},"coordinates":[6841,5362]},{"type":"Point","properties":{"name":"Hebi","state":"Henan"},"coordinates":[6707,5439]},{"type":"Point","properties":{"name":"Xuchang","state":"Henan"},"coordinates":[6637,4846]},{"type":"Point","properties":{"name":"Zhoukou","state":"Henan"},"coordinates":[6779,4726]},{"type":"Point","properties":{"name":"Dengzhou","state":"Henan"},"coordinates":[6332,4434]},{"type":"Point","properties":{"name":"Tieling","state":"Liaoning"},"coordinates":[8391,7391]},{"type":"Point","properties":{"name":"Chaoyang","state":"Liaoning"},"coordinates":[7794,7161]},{"type":"Point","properties":{"name":"Huanren","state":"Liaoning"},"coordinates":[8658,7070]},{"type":"Point","properties":{"name":"Zhuanghe","state":"Liaoning"},"coordinates":[8240,6586]},{"type":"Point","properties":{"name":"Yishui","state":"Shandong"},"coordinates":[7479,5390]},{"type":"Point","properties":{"name":"Shanxian","state":"Shandong"},"coordinates":[7033,5082]},{"type":"Point","properties":{"name":"Pingyi","state":"Shandong"},"coordinates":[7303,5304]},{"type":"Point","properties":{"name":"Pingdu","state":"Shandong"},"coordinates":[7710,5697]},{"type":"Point","properties":{"name":"Laiwu","state":"Shandong"},"coordinates":[7310,5516]},{"type":"Point","properties":{"name":"Buizhou","state":"Shandong"},"coordinates":[7374,5875]},{"type":"Point","properties":{"name":"Liaocheng","state":"Shandong"},"coordinates":[7014,5586]},{"type":"Point","properties":{"name":"Rizhao","state":"Shandong"},"coordinates":[7624,5279]},{"type":"Point","properties":{"name":"Dezhou","state":"Shandong"},"coordinates":[7072,5900]},{"type":"Point","properties":{"name":"Linchuan","state":"Jiangxi"},"coordinates":[7083,2986]},{"type":"Point","properties":{"name":"Fengcheng","state":"Jiangxi"},"coordinates":[6979,3056]},{"type":"Point","properties":{"name":"Jian","state":"Jiangxi"},"coordinates":[6844,2727]},{"type":"Point","properties":{"name":"Shangrao","state":"Jiangxi"},"coordinates":[7365,3139]},{"type":"Point","properties":{"name":"Jingdezhen","state":"Jiangxi"},"coordinates":[7226,3385]},{"type":"Point","properties":{"name":"Taizhou","state":"Jiangsu"},"coordinates":[7703,4375]},{"type":"Point","properties":{"name":"Shuyang","state":"Jiangsu"},"coordinates":[7506,4879]},{"type":"Point","properties":{"name":"Lianyungang","state":"Jiangsu"},"coordinates":[7575,5024]},{"type":"Point","properties":{"name":"Lishui","state":"Zhejiang"},"coordinates":[7703,3133]},{"type":"Point","properties":{"name":"Jiaojing","state":"Zhejiang"},"coordinates":[7975,3204]},{"type":"Point","properties":{"name":"Quzhou","state":"Zhejiang"},"coordinates":[7523,3293]},{"type":"Point","properties":{"name":"Fuyu","state":"Jilin"},"coordinates":[8566,8276]},{"type":"Point","properties":{"name":"Dunhua","state":"Jilin"},"coordinates":[9162,7714]},{"type":"Point","properties":{"name":"Nongan","state":"Jilin"},"coordinates":[8627,8046]},{"type":"Point","properties":{"name":"Taonan","state":"Jilin"},"coordinates":[8208,8323]},{"type":"Point","properties":{"name":"Liuhe","state":"Jilin"},"coordinates":[8723,7384]},{"type":"Point","properties":{"name":"Huinan","state":"Jilin"},"coordinates":[8819,7490]},{"type":"Point","properties":{"name":"Panshi","state":"Jilin"},"coordinates":[8783,7589]},{"type":"Point","properties":{"name":"Jiaohe","state":"Jilin"},"coordinates":[9009,7826]},{"type":"Point","properties":{"name":"Linjiang","state":"Jilin"},"coordinates":[8937,7248]},{"type":"Point","properties":{"name":"Wangqing","state":"Jilin"},"coordinates":[9428,7706]},{"type":"Point","properties":{"name":"Helong","state":"Jilin"},"coordinates":[9300,7463]},{"type":"Point","properties":{"name":"Shulan","state":"Jilin"},"coordinates":[8939,8039]},{"type":"Point","properties":{"name":"Jiutai","state":"Jilin"},"coordinates":[8746,7958]},{"type":"Point","properties":{"name":"Alxa Zuoqi","state":"Nei Mongol"},"coordinates":[5208,6327]},{"type":"Point","properties":{"name":"Linxi","state":"Nei Mongol"},"coordinates":[7376,7765]},{"type":"Point","properties":{"name":"Kailu","state":"Nei Mongol"},"coordinates":[7931,7786]},{"type":"Point","properties":{"name":"Bairin Zuoqi","state":"Nei Mongol"},"coordinates":[7578,7909]},{"type":"Point","properties":{"name":"Yitulihe","state":"Nei Mongol"},"coordinates":[7987,9959]},{"type":"Point","properties":{"name":"Yakeshi","state":"Nei Mongol"},"coordinates":[7849,9537]},{"type":"Point","properties":{"name":"Bugt","state":"Nei Mongol"},"coordinates":[8060,9384]},{"type":"Point","properties":{"name":"Wuyuan","state":"Nei Mongol"},"coordinates":[5664,7019]},{"type":"Point","properties":{"name":"Bayan Obo","state":"Nei Mongol"},"coordinates":[5962,7227]},{"type":"Point","properties":{"name":"Fengzhen","state":"Nei Mongol"},"coordinates":[6519,6824]},{"type":"Point","properties":{"name":"Suihua","state":"Heilongjiang"},"coordinates":[8945,8722]},{"type":"Point","properties":{"name":"Shuangyashan","state":"Heilongjiang"},"coordinates":[9711,8735]},{"type":"Point","properties":{"name":"Shangzhi","state":"Heilongjiang"},"coordinates":[9118,8289]},{"type":"Point","properties":{"name":"Fujin","state":"Heilongjiang"},"coordinates":[9829,8919]},{"type":"Point","properties":{"name":"Yian","state":"Heilongjiang"},"coordinates":[8650,9107]},{"type":"Point","properties":{"name":"Tailai","state":"Heilongjiang"},"coordinates":[8319,8648]},{"type":"Point","properties":{"name":"Longjiang","state":"Heilongjiang"},"coordinates":[8278,8941]},{"type":"Point","properties":{"name":"Gannan","state":"Heilongjiang"},"coordinates":[8336,9119]},{"type":"Point","properties":{"name":"Hailun","state":"Heilongjiang"},"coordinates":[8936,8974]},{"type":"Point","properties":{"name":"Mishan","state":"Heilongjiang"},"coordinates":[9804,8390]},{"type":"Point","properties":{"name":"Tieli","state":"Heilongjiang"},"coordinates":[9132,8821]},{"type":"Point","properties":{"name":"Shuangcheng","state":"Heilongjiang"},"coordinates":[8822,8329]},{"type":"Point","properties":{"name":"Zhaodong","state":"Heilongjiang"},"coordinates":[8769,8553]},{"type":"Point","properties":{"name":"Lanxi","state":"Heilongjiang"},"coordinates":[8821,8610]},{"type":"Point","properties":{"name":"Keshan","state":"Heilongjiang"},"coordinates":[8749,9151]},{"type":"Point","properties":{"name":"Nancha","state":"Heilongjiang"},"coordinates":[9349,8878]},{"type":"Point","properties":{"name":"Xinqing","state":"Heilongjiang"},"coordinates":[9388,9216]},{"type":"Point","properties":{"name":"Hulin","state":"Heilongjiang"},"coordinates":[9999,8457]},{"type":"Point","properties":{"name":"Boli","state":"Heilongjiang"},"coordinates":[9575,8454]},{"type":"Point","properties":{"name":"Ningan","state":"Heilongjiang"},"coordinates":[9381,8015]},{"type":"Point","properties":{"name":"Jyekundo","state":"Gansu"},"coordinates":[3641,4537]},{"type":"Point","properties":{"name":"Liuzhou","state":"Guangxi"},"coordinates":[5835,1852]},{"type":"Point","properties":{"name":"Xingyi","state":"Guizhou"},"coordinates":[5071,2101]},{"type":"Point","properties":{"name":"Anshun","state":"Guizhou"},"coordinates":[5253,2457]},{"type":"Point","properties":{"name":"Zunyi","state":"Guizhou"},"coordinates":[5427,2903]},{"type":"Point","properties":{"name":"Wanzhou","state":"Chongqing"},"coordinates":[5687,3862]},{"type":"Point","properties":{"name":"Huaibei","state":"Anhui"},"coordinates":[7151,4825]},{"type":"Point","properties":{"name":"Wuhu","state":"Anhui"},"coordinates":[7435,4025]},{"type":"Point","properties":{"name":"Luan","state":"Anhui"},"coordinates":[7103,4148]},{"type":"Point","properties":{"name":"Bengbu","state":"Anhui"},"coordinates":[7252,4517]},{"type":"Point","properties":{"name":"Anqing","state":"Anhui"},"coordinates":[7203,3763]},{"type":"Point","properties":{"name":"Foshan","state":"Guangdong"},"coordinates":[6514,1467]},{"type":"Point","properties":{"name":"Nagchu","state":"Xizang"},"coordinates":[2820,4065]},{"type":"Point","properties":{"name":"Nyingchi","state":"Xizang"},"coordinates":[3235,3466]},{"type":"Point","properties":{"name":"Chamdo","state":"Xizang"},"coordinates":[3729,3968]},{"type":"Point","properties":{"name":"Korla","state":"Xinjiang Uygur"},"coordinates":[1785,7216]},{"type":"Point","properties":{"name":"Kuqa","state":"Xinjiang Uygur"},"coordinates":[1222,7215]},{"type":"Point","properties":{"name":"Tacheng","state":"Xinjiang Uygur"},"coordinates":[1224,8759]},{"type":"Point","properties":{"name":"Shihezi","state":"Xinjiang Uygur"},"coordinates":[1764,8006]},{"type":"Point","properties":{"name":"Karamay","state":"Xinjiang Uygur"},"coordinates":[1559,8402]},{"type":"Point","properties":{"name":"Aksu","state":"Xinjiang Uygur"},"coordinates":[751,7037]},{"type":"Point","properties":{"name":"Sanya","state":"Hainan"},"coordinates":[5880,0]},{"type":"Point","properties":{"name":"Haikou","state":"Hainan"},"coordinates":[6023,551]},{"type":"Point","properties":{"name":"Hanzhong","state":"Shaanxi"},"coordinates":[5446,4572]},{"type":"Point","properties":{"name":"Baoji","state":"Shaanxi"},"coordinates":[5468,4956]},{"type":"Point","properties":{"name":"Tongchuan","state":"Shaanxi"},"coordinates":[5797,5171]},{"type":"Point","properties":{"name":"Linfen","state":"Shanxi"},"coordinates":[6233,5479]},{"type":"Point","properties":{"name":"Yuci","state":"Shanxi"},"coordinates":[6446,5971]},{"type":"Point","properties":{"name":"Datong","state":"Shanxi"},"coordinates":[6546,6709]},{"type":"Point","properties":{"name":"Jianmen","state":"Hubei"},"coordinates":[6521,3810]},{"type":"Point","properties":{"name":"Yichang","state":"Hubei"},"coordinates":[6191,3825]},{"type":"Point","properties":{"name":"Xiantao","state":"Hubei"},"coordinates":[6570,3724]},{"type":"Point","properties":{"name":"Macheng","state":"Hubei"},"coordinates":[6849,3972]},{"type":"Point","properties":{"name":"Huangshi","state":"Hubei"},"coordinates":[6862,3677]},{"type":"Point","properties":{"name":"Zhuzhou","state":"Hunan"},"coordinates":[6519,2943]},{"type":"Point","properties":{"name":"Yongzhou","state":"Hunan"},"coordinates":[6251,2451]},{"type":"Point","properties":{"name":"Yiyang","state":"Hunan"},"coordinates":[6375,3180]},{"type":"Point","properties":{"name":"Changde","state":"Hunan"},"coordinates":[6262,3312]},{"type":"Point","properties":{"name":"Shaoyang","state":"Hunan"},"coordinates":[6178,2687]},{"type":"Point","properties":{"name":"Leshan","state":"Sichuan"},"coordinates":[4868,3477]},{"type":"Point","properties":{"name":"Panzhihua","state":"Sichuan"},"coordinates":[4517,2549]},{"type":"Point","properties":{"name":"Fulin","state":"Sichuan"},"coordinates":[4690,3410]},{"type":"Point","properties":{"name":"Guangyuan","state":"Sichuan"},"coordinates":[5243,4357]},{"type":"Point","properties":{"name":"Luzhou","state":"Sichuan"},"coordinates":[5157,3266]},{"type":"Point","properties":{"name":"Yibin","state":"Sichuan"},"coordinates":[5015,3232]},{"type":"Point","properties":{"name":"Zhaotang","state":"Yunnan"},"coordinates":[4866,2786]},{"type":"Point","properties":{"name":"Lijiang","state":"Yunnan"},"coordinates":[4260,2626]},{"type":"Point","properties":{"name":"Yuxi","state":"Yunnan"},"coordinates":[4664,1882]},{"type":"Point","properties":{"name":"Dali","state":"Yunnan"},"coordinates":[4245,2288]},{"type":"Point","properties":{"name":"Qinhuangdao","state":"Hebei"},"coordinates":[7654,6663]},{"type":"Point","properties":{"name":"Langfang","state":"Hebei"},"coordinates":[7138,6537]},{"type":"Point","properties":{"name":"Zhangjiakou","state":"Hebei"},"coordinates":[6831,6940]},{"type":"Point","properties":{"name":"Tangshan","state":"Hebei"},"coordinates":[7404,6569]},{"type":"Point","properties":{"name":"Anyang","state":"Henan"},"coordinates":[6730,5479]},{"type":"Point","properties":{"name":"Jiaozuo","state":"Henan"},"coordinates":[6532,5224]},{"type":"Point","properties":{"name":"Kaifeng","state":"Henan"},"coordinates":[6730,5101]},{"type":"Point","properties":{"name":"Shangqiu","state":"Henan"},"coordinates":[6958,4978]},{"type":"Point","properties":{"name":"Pingdingshan","state":"Henan"},"coordinates":[6546,4757]},{"type":"Point","properties":{"name":"Xinyang","state":"Henan"},"coordinates":[6681,4265]},{"type":"Point","properties":{"name":"Xinxiang","state":"Henan"},"coordinates":[6646,5246]},{"type":"Point","properties":{"name":"Luoyang","state":"Henan"},"coordinates":[6400,5049]},{"type":"Point","properties":{"name":"Liaoyang","state":"Liaoning"},"coordinates":[8278,7078]},{"type":"Point","properties":{"name":"Dandong","state":"Liaoning"},"coordinates":[8491,6729]},{"type":"Point","properties":{"name":"Yingkow","state":"Liaoning"},"coordinates":[8120,6891]},{"type":"Point","properties":{"name":"Jinzhou","state":"Liaoning"},"coordinates":[7913,7029]},{"type":"Point","properties":{"name":"Fuxin","state":"Liaoning"},"coordinates":[8012,7303]},{"type":"Point","properties":{"name":"Benxi","state":"Liaoning"},"coordinates":[8378,7093]},{"type":"Point","properties":{"name":"Fushun","state":"Liaoning"},"coordinates":[8399,7258]},{"type":"Point","properties":{"name":"Jining","state":"Shandong"},"coordinates":[7115,5270]},{"type":"Point","properties":{"name":"Weifang","state":"Shandong"},"coordinates":[7563,5676]},{"type":"Point","properties":{"name":"Taian","state":"Shandong"},"coordinates":[7215,5516]},{"type":"Point","properties":{"name":"Heze","state":"Shandong"},"coordinates":[6923,5218]},{"type":"Point","properties":{"name":"Laiyang","state":"Shandong"},"coordinates":[7845,5752]},{"type":"Point","properties":{"name":"Xinyu","state":"Jiangxi"},"coordinates":[6831,2934]},{"type":"Point","properties":{"name":"Ganzhou","state":"Jiangxi"},"coordinates":[6835,2355]},{"type":"Point","properties":{"name":"Jiujiang","state":"Jiangxi"},"coordinates":[7016,3527]},{"type":"Point","properties":{"name":"Changzhou","state":"Jiangsu"},"coordinates":[7715,4157]},{"type":"Point","properties":{"name":"Zhenjiang","state":"Jiangsu"},"coordinates":[7620,4293]},{"type":"Point","properties":{"name":"Nantong","state":"Jiangsu"},"coordinates":[7865,4234]},{"type":"Point","properties":{"name":"Jiaxing","state":"Zhejiang"},"coordinates":[7852,3847]},{"type":"Point","properties":{"name":"Huzhou","state":"Zhejiang"},"coordinates":[7738,3878]},{"type":"Point","properties":{"name":"Shaoxing","state":"Zhejiang"},"coordinates":[7820,3610]},{"type":"Point","properties":{"name":"Jinhua","state":"Zhejiang"},"coordinates":[7659,3339]},{"type":"Point","properties":{"name":"Liaoyuan","state":"Jilin"},"coordinates":[8620,7575]},{"type":"Point","properties":{"name":"Tumen","state":"Jilin"},"coordinates":[9443,7597]},{"type":"Point","properties":{"name":"Siping","state":"Jilin"},"coordinates":[8480,7658]},{"type":"Point","properties":{"name":"Baicheng","state":"Jilin"},"coordinates":[8215,8412]},{"type":"Point","properties":{"name":"Wuhai","state":"Nei Mongol"},"coordinates":[5408,6581]},{"type":"Point","properties":{"name":"Erenhot","state":"Nei Mongol"},"coordinates":[6312,7810]},{"type":"Point","properties":{"name":"Jining","state":"Nei Mongol"},"coordinates":[6507,7001]},{"type":"Point","properties":{"name":"Arxan","state":"Nei Mongol"},"coordinates":[7715,8892]},{"type":"Point","properties":{"name":"Manzhouli","state":"Nei Mongol"},"coordinates":[7270,9635]},{"type":"Point","properties":{"name":"Xilinhot","state":"Nei Mongol"},"coordinates":[7027,7896]},{"type":"Point","properties":{"name":"Heihe","state":"Heilongjiang"},"coordinates":[9026,9835]},{"type":"Point","properties":{"name":"Qitaihe","state":"Heilongjiang"},"coordinates":[9623,8467]},{"type":"Point","properties":{"name":"Yichun","state":"Heilongjiang"},"coordinates":[9281,9052]},{"type":"Point","properties":{"name":"Hegang","state":"Heilongjiang"},"coordinates":[9539,8959]},{"type":"Point","properties":{"name":"Nenjiang","state":"Heilongjiang"},"coordinates":[8638,9506]},{"type":"Point","properties":{"name":"Nehe","state":"Heilongjiang"},"coordinates":[8577,9294]},{"type":"Point","properties":{"name":"Mudangiang","state":"Heilongjiang"},"coordinates":[9402,8091]},{"type":"Point","properties":{"name":"Xuanzhou","state":"Anhui"},"coordinates":[7502,3903]},{"type":"Point","properties":{"name":"Zhuhai","state":"Guangdong"},"coordinates":[6593,1236]},{"type":"Point","properties":{"name":"Xianyang","state":"Shaanxi"},"coordinates":[5742,4946]},{"type":"Point","properties":{"name":"Xiangfan","state":"Hubei"},"coordinates":[6340,4231]},{"type":"Point","properties":{"name":"Suining","state":"Sichuan"},"coordinates":[5184,3774]},{"type":"Point","properties":{"name":"Lingyuan","state":"Liaoning"},"coordinates":[7615,7066]},{"type":"Point","properties":{"name":"Weihai","state":"Shandong"},"coordinates":[8089,5915]},{"type":"Point","properties":{"name":"Yichun","state":"Jiangxi"},"coordinates":[6738,2944]},{"type":"Point","properties":{"name":"Yancheng","state":"Jiangsu"},"coordinates":[7742,4651]},{"type":"Point","properties":{"name":"Fuyang","state":"Zhejiang"},"coordinates":[7712,3627]},{"type":"Point","properties":{"name":"Xiamen","state":"Fujian"},"coordinates":[7384,1904]},{"type":"Point","properties":{"name":"Nanchong","state":"Sichuan"},"coordinates":[5288,3850]},{"type":"Point","properties":{"name":"Neijiang","state":"Sichuan"},"coordinates":[5099,3481]},{"type":"Point","properties":{"name":"Nanyang","state":"Henan"},"coordinates":[6411,4533]},{"type":"Point","properties":{"name":"Jinxi","state":"Liaoning"},"coordinates":[7866,6915]},{"type":"Point","properties":{"name":"Yantai","state":"Shandong"},"coordinates":[7966,5925]},{"type":"Point","properties":{"name":"Zaozhuang","state":"Shandong"},"coordinates":[7294,5110]},{"type":"Point","properties":{"name":"Suzhou","state":"Jiangsu"},"coordinates":[7829,4010]},{"type":"Point","properties":{"name":"Xuzhou","state":"Jiangsu"},"coordinates":[7226,4926]},{"type":"Point","properties":{"name":"Wuxi","state":"Jiangsu"},"coordinates":[7773,4096]},{"type":"Point","properties":{"name":"Jilin","state":"Jilin"},"coordinates":[8869,7868]},{"type":"Point","properties":{"name":"Zhangye","state":"Gansu"},"coordinates":[4293,6355]},{"type":"Point","properties":{"name":"Wuwei","state":"Gansu"},"coordinates":[4677,6047]},{"type":"Point","properties":{"name":"Dunhuang","state":"Gansu"},"coordinates":[3278,6728]},{"type":"Point","properties":{"name":"Tianshui","state":"Gansu"},"coordinates":[5251,5024]},{"type":"Point","properties":{"name":"Dulan","state":"Gansu"},"coordinates":[3910,5505]},{"type":"Point","properties":{"name":"Golmud","state":"Gansu"},"coordinates":[3317,5582]},{"type":"Point","properties":{"name":"Yulin","state":"Guangxi"},"coordinates":[5993,1344]},{"type":"Point","properties":{"name":"Bose","state":"Guangxi"},"coordinates":[5373,1734]},{"type":"Point","properties":{"name":"Wuzhou","state":"Guangxi"},"coordinates":[6199,1605]},{"type":"Point","properties":{"name":"Lupanshui","state":"Guizhou"},"coordinates":[5061,2563]},{"type":"Point","properties":{"name":"Quanzhou","state":"Fujian"},"coordinates":[7471,2042]},{"type":"Point","properties":{"name":"Hefei","state":"Anhui"},"coordinates":[7243,4179]},{"type":"Point","properties":{"name":"Suzhou","state":"Anhui"},"coordinates":[7191,4728]},{"type":"Point","properties":{"name":"Zhanjiang","state":"Guangdong"},"coordinates":[6034,905]},{"type":"Point","properties":{"name":"Shaoguan","state":"Guangdong"},"coordinates":[6595,2011]},{"type":"Point","properties":{"name":"Xigaze","state":"Xizang"},"coordinates":[2264,3379]},{"type":"Point","properties":{"name":"Shache","state":"Xinjiang Uygur"},"coordinates":[224,6200]},{"type":"Point","properties":{"name":"Yining","state":"Xinjiang Uygur"},"coordinates":[943,7883]},{"type":"Point","properties":{"name":"Altay","state":"Xinjiang Uygur"},"coordinates":[2130,9102]},{"type":"Point","properties":{"name":"Shizuishan","state":"Ningxia Hui"},"coordinates":[5401,6448]},{"type":"Point","properties":{"name":"Yulin","state":"Shaanxi"},"coordinates":[5920,6156]},{"type":"Point","properties":{"name":"Ankang","state":"Shaanxi"},"coordinates":[5795,4433]},{"type":"Point","properties":{"name":"Houma","state":"Shanxi"},"coordinates":[6179,5337]},{"type":"Point","properties":{"name":"Yueyang","state":"Hunan"},"coordinates":[6511,3420]},{"type":"Point","properties":{"name":"Hengyang","state":"Hunan"},"coordinates":[6421,2651]},{"type":"Point","properties":{"name":"Mianyang","state":"Sichuan"},"coordinates":[5050,4062]},{"type":"Point","properties":{"name":"Xichang","state":"Sichuan"},"coordinates":[4617,2958]},{"type":"Point","properties":{"name":"Baoshan","state":"Yunnan"},"coordinates":[4065,2109]},{"type":"Point","properties":{"name":"Gejiu","state":"Yunnan"},"coordinates":[4766,1574]},{"type":"Point","properties":{"name":"Shijianzhuang","state":"Hebei"},"coordinates":[6752,6085]},{"type":"Point","properties":{"name":"Handan","state":"Hebei"},"coordinates":[6752,5633]},{"type":"Point","properties":{"name":"Anshan","state":"Liaoning"},"coordinates":[8236,7027]},{"type":"Point","properties":{"name":"Dalian","state":"Liaoning"},"coordinates":[8006,6353]},{"type":"Point","properties":{"name":"Qingdao","state":"Shandong"},"coordinates":[7778,5482]},{"type":"Point","properties":{"name":"Linyi","state":"Shandong"},"coordinates":[7428,5172]},{"type":"Point","properties":{"name":"Huaiyin","state":"Jiangsu"},"coordinates":[7550,4711]},{"type":"Point","properties":{"name":"Wenzhou","state":"Zhejiang"},"coordinates":[7834,3001]},{"type":"Point","properties":{"name":"Ningbo","state":"Zhejiang"},"coordinates":[7992,3573]},{"type":"Point","properties":{"name":"Tongliao","state":"Nei Mongol"},"coordinates":[8118,7797]},{"type":"Point","properties":{"name":"Hohhot","state":"Nei Mongol"},"coordinates":[6258,6937]},{"type":"Point","properties":{"name":"Chifeng","state":"Nei Mongol"},"coordinates":[7536,7382]},{"type":"Point","properties":{"name":"Ulanhot","state":"Nei Mongol"},"coordinates":[8086,8553]},{"type":"Point","properties":{"name":"Hailar","state":"Nei Mongol"},"coordinates":[7668,9512]},{"type":"Point","properties":{"name":"Jiamusi","state":"Heilongjiang"},"coordinates":[9535,8784]},{"type":"Point","properties":{"name":"Beian","state":"Heilongjiang"},"coordinates":[8857,9217]},{"type":"Point","properties":{"name":"Daqing","state":"Heilongjiang"},"coordinates":[8597,8707]},{"type":"Point","properties":{"name":"Jixi","state":"Heilongjiang"},"coordinates":[9644,8314]},{"type":"Point","properties":{"name":"Jiayuguan","state":"Gansu"},"coordinates":[3916,6629]},{"type":"Point","properties":{"name":"Xining","state":"Gansu"},"coordinates":[4524,5645]},{"type":"Point","properties":{"name":"Guilin","state":"Guangxi"},"coordinates":[6016,2159]},{"type":"Point","properties":{"name":"Huainan","state":"Anhui"},"coordinates":[7191,4419]},{"type":"Point","properties":{"name":"Shantou","state":"Guangdong"},"coordinates":[7137,1572]},{"type":"Point","properties":{"name":"Lhasa","state":"Xizang"},"coordinates":[2653,3500]},{"type":"Point","properties":{"name":"Hami","state":"Xinjiang Uygur"},"coordinates":[3077,7553]},{"type":"Point","properties":{"name":"Hotan","state":"Xinjiang Uygur"},"coordinates":[694,5792]},{"type":"Point","properties":{"name":"Kashgar","state":"Xinjiang Uygur"},"coordinates":[0,6523]},{"type":"Point","properties":{"name":"Yinchuan","state":"Ningxia Hui"},"coordinates":[5313,6213]},{"type":"Point","properties":{"name":"Pingxiang","state":"Jiangxi"},"coordinates":[6642,2878]},{"type":"Point","properties":{"name":"Qiqihar","state":"Heilongjiang"},"coordinates":[8420,8943]},{"type":"Point","properties":{"name":"Shenzhen","state":"Guangdong"},"coordinates":[6690,1320]},{"type":"Point","properties":{"name":"Zibo","state":"Shandong"},"coordinates":[7379,5701]},{"type":"Point","properties":{"name":"Lanzhou","state":"Gansu"},"coordinates":[4878,5472]},{"type":"Point","properties":{"name":"Nanning","state":"Guangxi"},"coordinates":[5672,1403]},{"type":"Point","properties":{"name":"Guiyang","state":"Guizhou"},"coordinates":[5392,2559]},{"type":"Point","properties":{"name":"Chongqing","state":"Chongqing"},"coordinates":[5370,3476]},{"type":"Point","properties":{"name":"Fuzhou","state":"Fujian"},"coordinates":[7598,2405]},{"type":"Point","properties":{"name":"Guangzhou","state":"Guangdong"},"coordinates":[6550,1503]},{"type":"Point","properties":{"name":"Dongguan","state":"Guangdong"},"coordinates":[6624,1473]},{"type":"Point","properties":{"name":"Xian","state":"Shaanxi"},"coordinates":[5773,4924]},{"type":"Point","properties":{"name":"Taiyuan","state":"Shanxi"},"coordinates":[6413,6031]},{"type":"Point","properties":{"name":"Wuhan","state":"Hubei"},"coordinates":[6716,3788]},{"type":"Point","properties":{"name":"Changsha","state":"Hunan"},"coordinates":[6488,3057]},{"type":"Point","properties":{"name":"Kunming","state":"Yunnan"},"coordinates":[4683,2094]},{"type":"Point","properties":{"name":"Zhengzhou","state":"Henan"},"coordinates":[6610,5072]},{"type":"Point","properties":{"name":"Shenyeng","state":"Liaoning"},"coordinates":[8325,7239]},{"type":"Point","properties":{"name":"Jinan","state":"Shandong"},"coordinates":[7194,5662]},{"type":"Point","properties":{"name":"Tianjin","state":"Tianjin"},"coordinates":[7229,6417]},{"type":"Point","properties":{"name":"Nanchang","state":"Jiangxi"},"coordinates":[6998,3204]},{"type":"Point","properties":{"name":"Nanjing","state":"Jiangsu"},"coordinates":[7507,4240]},{"type":"Point","properties":{"name":"Hangzhou","state":"Zhejiang"},"coordinates":[7750,3687]},{"type":"Point","properties":{"name":"Changchun","state":"Jilin"},"coordinates":[8657,7873]},{"type":"Point","properties":{"name":"Baotou","state":"Nei Mongol"},"coordinates":[5936,6885]},{"type":"Point","properties":{"name":"Harbin","state":"Heilongjiang"},"coordinates":[8887,8452]},{"type":"Point","properties":{"name":"Urumqi","state":"Xinjiang Uygur"},"coordinates":[2035,7854]},{"type":"Point","properties":{"name":"Chengdu","state":"Sichuan"},"coordinates":[4927,3816]},{"type":"Point","properties":{"name":"Beijing","state":"Beijing"},"coordinates":[7087,6663]},{"type":"Point","properties":{"name":"Shanghai","state":"Shanghai"},"coordinates":[7972,3984]}]}},"arcs":[],"transform":{"scale":[0.005702801033706897,0.0032527468335985196],"translate":[75.9699259022097,18.259104539323175]}}