{"type":"Topology","objects":{"cities":{"type":"GeometryCollection","geometries":[{"type":"Point","properties":{"name":"Central Coast","state":"New South Wales"},"coordinates":[9420,3131]},{"type":"Point","properties":{"name":"Sunshine Coast","state":"Queensland"},"coordinates":[9858,5336]},{"type":"Point","properties":{"name":"Bourke","state":"New South Wales"},"coordinates":[8078,4217]},{"type":"Point","properties":{"name":"Pine Creek","state":"Northern Territory"},"coordinates":[4545,9544]},{"type":"Point","properties":{"name":"Adelaide River","state":"Northern Territory"},"coordinates":[4366,9729]},{"type":"Point","properties":{"name":"McMinns Lagoon","state":"Northern Territory"},"coordinates":[4354,9964]},{"type":"Point","properties":{"name":"Newcastle Waters","state":"Northern Territory"},"coordinates":[4958,8322]},{"type":"Point","properties":{"name":"Ravensthorpe","state":"Western Australia"},"coordinates":[1597,3078]},{"type":"Point","properties":{"name":"Wagin","state":"Western Australia"},"coordinates":[926,3170]},{"type":"Point","properties":{"name":"Roebourne","state":"Western Australia"},"coordinates":[872,7265]},{"type":"Point","properties":{"name":"Pannawonica","state":"Western Australia"},"coordinates":[669,6986]},{"type":"Point","properties":{"name":"Tom Price","state":"Western Australia"},"coordinates":[1037,6640]},{"type":"Point","properties":{"name":"Kalbarri","state":"Western Australia"},"coordinates":[129,5013]},{"type":"Point","properties":{"name":"Mount Magnet","state":"Western Australia"},"coordinates":[1043,4882]},{"type":"Point","properties":{"name":"Morawa","state":"Western Australia"},"coordinates":[588,4506]},{"type":"Point","properties":{"name":"Port Denison","state":"Western Australia"},"coordinates":[317,4484]},{"type":"Point","properties":{"name":"Merredin","state":"Western Australia"},"coordinates":[1155,3765]},{"type":"Point","properties":{"name":"Mount Barker","state":"Western Australia"},"coordinates":[1005,2734]},{"type":"Point","properties":{"name":"Katanning","state":"Western Australia"},"coordinates":[976,3040]},{"type":"Point","properties":{"name":"Narrogin","state":"Western Australia"},"coordinates":[880,3290]},{"type":"Point","properties":{"name":"Gingin","state":"Western Australia"},"coordinates":[563,3808]},{"type":"Point","properties":{"name":"Bunbury","state":"Western Australia"},"coordinates":[500,3156]},{"type":"Point","properties":{"name":"Kwinana","state":"Western Australia"},"coordinates":[530,3517]},{"type":"Point","properties":{"name":"Southern Cross","state":"Western Australia"},"coordinates":[1418,3852]},{"type":"Point","properties":{"name":"Kaltukatjara","state":"Northern Territory"},"coordinates":[3840,5628]},{"type":"Point","properties":{"name":"Queanbeyan","state":"Australian Capital Territory"},"coordinates":[8898,2498]},{"type":"Point","properties":{"name":"Tweed Heads","state":"New South Wales"},"coordinates":[9982,4844]},{"type":"Point","properties":{"name":"Ivanhoe","state":"New South Wales"},"coordinates":[7669,3301]},{"type":"Point","properties":{"name":"Wilcannia","state":"New South Wales"},"coordinates":[7439,3737]},{"type":"Point","properties":{"name":"Merimbula","state":"New South Wales"},"coordinates":[9070,1993]},{"type":"Point","properties":{"name":"Echuca","state":"New South Wales"},"coordinates":[7781,2245]},{"type":"Point","properties":{"name":"Deniliquin","state":"New South Wales"},"coordinates":[7831,2441]},{"type":"Point","properties":{"name":"Nowra","state":"New South Wales"},"coordinates":[9245,2652]},{"type":"Point","properties":{"name":"Ulladulla","state":"New South Wales"},"coordinates":[9213,2500]},{"type":"Point","properties":{"name":"Batemans Bay","state":"New South Wales"},"coordinates":[9147,2389]},{"type":"Point","properties":{"name":"Cooma","state":"New South Wales"},"coordinates":[8875,2209]},{"type":"Point","properties":{"name":"Tumut","state":"New South Wales"},"coordinates":[8650,2513]},{"type":"Point","properties":{"name":"Leeton","state":"New South Wales"},"coordinates":[8194,2763]},{"type":"Point","properties":{"name":"Young","state":"New South Wales"},"coordinates":[8667,2840]},{"type":"Point","properties":{"name":"Cowra","state":"New South Wales"},"coordinates":[8765,2997]},{"type":"Point","properties":{"name":"Forbes","state":"New South Wales"},"coordinates":[8600,3141]},{"type":"Point","properties":{"name":"Goulburn","state":"New South Wales"},"coordinates":[9023,2696]},{"type":"Point","properties":{"name":"Kiama","state":"New South Wales"},"coordinates":[9305,2709]},{"type":"Point","properties":{"name":"Katoomba","state":"New South Wales"},"coordinates":[9175,3037]},{"type":"Point","properties":{"name":"Richmond","state":"New South Wales"},"coordinates":[9280,3072]},{"type":"Point","properties":{"name":"Lithgow","state":"New South Wales"},"coordinates":[9133,3106]},{"type":"Point","properties":{"name":"Parkes","state":"New South Wales"},"coordinates":[8637,3226]},{"type":"Point","properties":{"name":"Bathurst","state":"New South Wales"},"coordinates":[8987,3131]},{"type":"Point","properties":{"name":"Maitland","state":"New South Wales"},"coordinates":[9484,3360]},{"type":"Point","properties":{"name":"Singleton","state":"New South Wales"},"coordinates":[9385,3409]},{"type":"Point","properties":{"name":"Mudgee","state":"New South Wales"},"coordinates":[8990,3403]},{"type":"Point","properties":{"name":"Muswellbrook","state":"New South Wales"},"coordinates":[9318,3507]},{"type":"Point","properties":{"name":"Taree","state":"New South Wales"},"coordinates":[9711,3629]},{"type":"Point","properties":{"name":"Kempsey","state":"New South Wales"},"coordinates":[9801,3894]},{"type":"Point","properties":{"name":"Gunnedah","state":"New South Wales"},"coordinates":[9161,3927]},{"type":"Point","properties":{"name":"Coffs Harbour","state":"New South Wales"},"coordinates":[9874,4149]},{"type":"Point","properties":{"name":"Narrabri","state":"New South Wales"},"coordinates":[9042,4141]},{"type":"Point","properties":{"name":"Inverell","state":"New South Wales"},"coordinates":[9373,4326]},{"type":"Point","properties":{"name":"Yamba","state":"New South Wales"},"coordinates":[9934,4439]},{"type":"Point","properties":{"name":"Ballina","state":"New South Wales"},"coordinates":[9988,4622]},{"type":"Point","properties":{"name":"Wagga Wagga","state":"New South Wales"},"coordinates":[8429,2574]},{"type":"Point","properties":{"name":"Scone","state":"New South Wales"},"coordinates":[9308,3569]},{"type":"Point","properties":{"name":"Byron Bay","state":"New South Wales"},"coordinates":[9999,4689]},{"type":"Point","properties":{"name":"Berri","state":"South Australia"},"coordinates":[6743,2849]},{"type":"Point","properties":{"name":"Peterborough","state":"South Australia"},"coordinates":[6301,3279]},{"type":"Point","properties":{"name":"Wallaroo","state":"South Australia"},"coordinates":[6001,2963]},{"type":"Point","properties":{"name":"Clare","state":"South Australia"},"coordinates":[6243,2996]},{"type":"Point","properties":{"name":"Meningie","state":"South Australia"},"coordinates":[6426,2385]},{"type":"Point","properties":{"name":"Kingston South East","state":"South Australia"},"coordinates":[6555,2015]},{"type":"Point","properties":{"name":"Bordertown","state":"South Australia"},"coordinates":[6785,2184]},{"type":"Point","properties":{"name":"Penola","state":"South Australia"},"coordinates":[6797,1835]},{"type":"Point","properties":{"name":"Kingoonya","state":"South Australia"},"coordinates":[5417,3956]},{"type":"Point","properties":{"name":"Kimba","state":"South Australia"},"coordinates":[5701,3219]},{"type":"Point","properties":{"name":"Streaky Bay","state":"South Australia"},"coordinates":[5145,3330]},{"type":"Point","properties":{"name":"Cowell","state":"South Australia"},"coordinates":[5821,3045]},{"type":"Point","properties":{"name":"Tumby Bay","state":"South Australia"},"coordinates":[5613,2816]},{"type":"Point","properties":{"name":"Andamooka","state":"South Australia"},"coordinates":[5884,4109]},{"type":"Point","properties":{"name":"Woomera","state":"South Australia"},"coordinates":[5792,3874]},{"type":"Point","properties":{"name":"Port Pirie","state":"South Australia"},"coordinates":[6090,3206]},{"type":"Point","properties":{"name":"Gawler","state":"South Australia"},"coordinates":[6274,2743]},{"type":"Point","properties":{"name":"Murray Bridge","state":"South Australia"},"coordinates":[6408,2572]},{"type":"Point","properties":{"name":"Victor Harbor","state":"South Australia"},"coordinates":[6247,2431]},{"type":"Point","properties":{"name":"Hamilton","state":"Victoria"},"coordinates":[7099,1721]},{"type":"Point","properties":{"name":"Ouyen","state":"Victoria"},"coordinates":[7173,2592]},{"type":"Point","properties":{"name":"Colac","state":"Victoria"},"coordinates":[7489,1522]},{"type":"Point","properties":{"name":"Stawell","state":"Victoria"},"coordinates":[7284,1940]},{"type":"Point","properties":{"name":"Horsham","state":"Victoria"},"coordinates":[7141,2055]},{"type":"Point","properties":{"name":"Ararat","state":"Victoria"},"coordinates":[7321,1868]},{"type":"Point","properties":{"name":"Maryborough","state":"Victoria"},"coordinates":[7526,1944]},{"type":"Point","properties":{"name":"Bairnsdale","state":"Victoria"},"coordinates":[8497,1689]},{"type":"Point","properties":{"name":"Sale","state":"Victoria"},"coordinates":[8359,1597]},{"type":"Point","properties":{"name":"Traralgon","state":"Victoria"},"coordinates":[8227,1567]},{"type":"Point","properties":{"name":"Wonthaggi","state":"Victoria"},"coordinates":[7992,1433]},{"type":"Point","properties":{"name":"Cranbourne","state":"Victoria"},"coordinates":[7915,1600]},{"type":"Point","properties":{"name":"Ballarat","state":"Victoria"},"coordinates":[7554,1777]},{"type":"Point","properties":{"name":"Melton","state":"Victoria"},"coordinates":[7736,1734]},{"type":"Point","properties":{"name":"Seymour","state":"Victoria"},"coordinates":[7876,1949]},{"type":"Point","properties":{"name":"Shepparton","state":"Victoria"},"coordinates":[7942,2164]},{"type":"Point","properties":{"name":"Cobram","state":"Victoria"},"coordinates":[8007,2313]},{"type":"Point","properties":{"name":"Swan Hill","state":"Victoria"},"coordinates":[7479,2503]},{"type":"Point","properties":{"name":"Sunbury","state":"Victoria"},"coordinates":[7771,1774]},{"type":"Point","properties":{"name":"Proserpine","state":"Queensland"},"coordinates":[8741,7385]},{"type":"Point","properties":{"name":"Theodore","state":"Queensland"},"coordinates":[9116,5902]},{"type":"Point","properties":{"name":"Eidsvold","state":"Queensland"},"coordinates":[9379,5766]},{"type":"Point","properties":{"name":"Barcaldine","state":"Queensland"},"coordinates":[7915,6355]},{"type":"Point","properties":{"name":"Winton","state":"Queensland"},"coordinates":[7352,6736]},{"type":"Point","properties":{"name":"Longreach","state":"Queensland"},"coordinates":[7656,6393]},{"type":"Point","properties":{"name":"Caboolture","state":"Queensland"},"coordinates":[9833,5204]},{"type":"Point","properties":{"name":"Warwick","state":"Queensland"},"coordinates":[9601,4829]},{"type":"Point","properties":{"name":"Kingaroy","state":"Queensland"},"coordinates":[9556,5382]},{"type":"Point","properties":{"name":"Dalby","state":"Queensland"},"coordinates":[9412,5168]},{"type":"Point","properties":{"name":"Bongaree","state":"Queensland"},"coordinates":[9883,5205]},{"type":"Point","properties":{"name":"Gympie","state":"Queensland"},"coordinates":[9763,5497]},{"type":"Point","properties":{"name":"Ingham","state":"Queensland"},"coordinates":[8136,7963]},{"type":"Point","properties":{"name":"Birdsville","state":"Queensland"},"coordinates":[6434,5591]},{"type":"Point","properties":{"name":"Bedourie","state":"Queensland"},"coordinates":[6459,6098]},{"type":"Point","properties":{"name":"Boulia","state":"Queensland"},"coordinates":[6568,6573]},{"type":"Point","properties":{"name":"Richmond","state":"Queensland"},"coordinates":[7377,7287]},{"type":"Point","properties":{"name":"Burketown","state":"Queensland"},"coordinates":[6485,8268]},{"type":"Point","properties":{"name":"Hervey Bay","state":"Queensland"},"coordinates":[9806,5791]},{"type":"Point","properties":{"name":"Biloela","state":"Queensland"},"coordinates":[9219,6084]},{"type":"Point","properties":{"name":"Yeppoon","state":"Queensland"},"coordinates":[9284,6496]},{"type":"Point","properties":{"name":"Emerald","state":"Queensland"},"coordinates":[8636,6372]},{"type":"Point","properties":{"name":"Moranbah","state":"Queensland"},"coordinates":[8604,6866]},{"type":"Point","properties":{"name":"Charters Towers","state":"Queensland"},"coordinates":[8159,7495]},{"type":"Point","properties":{"name":"Ayr","state":"Queensland"},"coordinates":[8444,7662]},{"type":"Point","properties":{"name":"Atherton","state":"Queensland"},"coordinates":[7961,8414]},{"type":"Point","properties":{"name":"Port Douglas","state":"Queensland"},"coordinates":[7959,8671]},{"type":"Point","properties":{"name":"Smithton","state":"Tasmania"},"coordinates":[7873,706]},{"type":"Point","properties":{"name":"Scottsdale","state":"Tasmania"},"coordinates":[8474,602]},{"type":"Point","properties":{"name":"Bicheno","state":"Tasmania"},"coordinates":[8667,364]},{"type":"Point","properties":{"name":"Oatlands","state":"Tasmania"},"coordinates":[8436,226]},{"type":"Point","properties":{"name":"Queenstown","state":"Tasmania"},"coordinates":[7982,297]},{"type":"Point","properties":{"name":"Kingston","state":"Tasmania"},"coordinates":[8422,0]},{"type":"Point","properties":{"name":"Tennant Creek","state":"Northern Territory"},"coordinates":[5142,7636]},{"type":"Point","properties":{"name":"Yulara","state":"Northern Territory"},"coordinates":[4338,5807]},{"type":"Point","properties":{"name":"Erldunda","state":"Northern Territory"},"coordinates":[4892,5809]},{"type":"Point","properties":{"name":"Norseman","state":"Western Australia"},"coordinates":[2031,3530]},{"type":"Point","properties":{"name":"Halls Creek","state":"Western Australia"},"coordinates":[3532,8088]},{"type":"Point","properties":{"name":"Kununurra","state":"Western Australia"},"coordinates":[3774,8906]},{"type":"Point","properties":{"name":"Derby","state":"Western Australia"},"coordinates":[2581,8404]},{"type":"Point","properties":{"name":"Onslow","state":"Western Australia"},"coordinates":[362,6979]},{"type":"Point","properties":{"name":"Exmouth","state":"Western Australia"},"coordinates":[118,6889]},{"type":"Point","properties":{"name":"Carnarvon","state":"Western Australia"},"coordinates":[0,5918]},{"type":"Point","properties":{"name":"Newman","state":"Western Australia"},"coordinates":[1522,6420]},{"type":"Point","properties":{"name":"Meekatharra","state":"Western Australia"},"coordinates":[1209,5362]},{"type":"Point","properties":{"name":"Three Springs","state":"Western Australia"},"coordinates":[525,4402]},{"type":"Point","properties":{"name":"Manjimup","state":"Western Australia"},"coordinates":[625,2865]},{"type":"Point","properties":{"name":"Northam","state":"Western Australia"},"coordinates":[751,3708]},{"type":"Point","properties":{"name":"Esperance","state":"Western Australia"},"coordinates":[2061,2988]},{"type":"Point","properties":{"name":"Leonara","state":"Western Australia"},"coordinates":[1921,4616]},{"type":"Point","properties":{"name":"Laverton","state":"Western Australia"},"coordinates":[2190,4699]},{"type":"Point","properties":{"name":"Wyndham","state":"Western Australia"},"coordinates":[3681,9034]},{"type":"Point","properties":{"name":"Albury","state":"New South Wales"},"coordinates":[8324,2267]},{"type":"Point","properties":{"name":"Forster-Tuncurry","state":"New South Wales"},"coordinates":[9727,3532]},{"type":"Point","properties":{"name":"Port Macquarie","state":"New South Wales"},"coordinates":[9825,3777]},{"type":"Point","properties":{"name":"Tamworth","state":"New South Wales"},"coordinates":[9325,3889]},{"type":"Point","properties":{"name":"Grafton","state":"New South Wales"},"coordinates":[9830,4344]},{"type":"Point","properties":{"name":"Moree","state":"New South Wales"},"coordinates":[9053,4423]},{"type":"Point","properties":{"name":"Goondiwindi","state":"New South Wales"},"coordinates":[9176,4723]},{"type":"Point","properties":{"name":"Lismore","state":"New South Wales"},"coordinates":[9919,4637]},{"type":"Point","properties":{"name":"Wollongong","state":"New South Wales"},"coordinates":[9318,2805]},{"type":"Point","properties":{"name":"Ceduna","state":"South Australia"},"coordinates":[5007,3563]},{"type":"Point","properties":{"name":"Mount Gambier","state":"South Australia"},"coordinates":[6784,1688]},{"type":"Point","properties":{"name":"Port Augusta","state":"South Australia"},"coordinates":[6035,3435]},{"type":"Point","properties":{"name":"Warrnambool","state":"Victoria"},"coordinates":[7211,1508]},{"type":"Point","properties":{"name":"Mildura","state":"Victoria"},"coordinates":[7131,2881]},{"type":"Point","properties":{"name":"Geelong","state":"Victoria"},"coordinates":[7693,1578]},{"type":"Point","properties":{"name":"Camooweal","state":"Queensland"},"coordinates":[6122,7548]},{"type":"Point","properties":{"name":"Quilpie","state":"Queensland"},"coordinates":[7656,5357]},{"type":"Point","properties":{"name":"Charleville","state":"Queensland"},"coordinates":[8157,5427]},{"type":"Point","properties":{"name":"Hughenden","state":"Queensland"},"coordinates":[7644,7243]},{"type":"Point","properties":{"name":"Caloundra","state":"Queensland"},"coordinates":[9879,5297]},{"type":"Point","properties":{"name":"Roma","state":"Queensland"},"coordinates":[8792,5375]},{"type":"Point","properties":{"name":"Toowoomba","state":"Queensland"},"coordinates":[9584,5047]},{"type":"Point","properties":{"name":"Georgetown","state":"Queensland"},"coordinates":[7477,8077]},{"type":"Point","properties":{"name":"Thargomindah","state":"Queensland"},"coordinates":[7548,4904]},{"type":"Point","properties":{"name":"Weipa","state":"Queensland"},"coordinates":[7060,9920]},{"type":"Point","properties":{"name":"Karumba","state":"Queensland"},"coordinates":[6801,8344]},{"type":"Point","properties":{"name":"Cloncurry","state":"Queensland"},"coordinates":[6718,7292]},{"type":"Point","properties":{"name":"Maryborough","state":"Queensland"},"coordinates":[9776,5706]},{"type":"Point","properties":{"name":"Bundaberg","state":"Queensland"},"coordinates":[9683,5925]},{"type":"Point","properties":{"name":"Gladstone","state":"Queensland"},"coordinates":[9407,6261]},{"type":"Point","properties":{"name":"Bowen","state":"Queensland"},"coordinates":[8647,7521]},{"type":"Point","properties":{"name":"Innisfail","state":"Queensland"},"coordinates":[8104,8329]},{"type":"Point","properties":{"name":"Mackay","state":"Queensland"},"coordinates":[8882,7147]},{"type":"Point","properties":{"name":"Burnie","state":"Tasmania"},"coordinates":[8073,630]},{"type":"Point","properties":{"name":"Launceston","state":"Tasmania"},"coordinates":[8377,504]},{"type":"Point","properties":{"name":"Katherine","state":"Northern Territory"},"coordinates":[4658,9331]},{"type":"Point","properties":{"name":"Busselton","state":"Western Australia"},"coordinates":[425,3054]},{"type":"Point","properties":{"name":"Mandurah","state":"Western Australia"},"coordinates":[525,3424]},{"type":"Point","properties":{"name":"Broome","state":"Western Australia"},"coordinates":[2147,8188]},{"type":"Point","properties":{"name":"Kalgoorlie","state":"Western Australia"},"coordinates":[1954,4009]},{"type":"Point","properties":{"name":"Albany","state":"Western Australia"},"coordinates":[1061,2609]},{"type":"Point","properties":{"name":"Port Hedland","state":"Western Australia"},"coordinates":[1240,7420]},{"type":"Point","properties":{"name":"Karratha","state":"Western Australia"},"coordinates":[806,7282]},{"type":"Point","properties":{"name":"Geraldton","state":"Western Australia"},"coordinates":[238,4653]},{"type":"Point","properties":{"name":"Griffith","state":"New South Wales"},"coordinates":[8104,2846]},{"type":"Point","properties":{"name":"Orange","state":"New South Wales"},"coordinates":[8870,3177]},{"type":"Point","properties":{"name":"Dubbo","state":"New South Wales"},"coordinates":[8744,3511]},{"type":"Point","properties":{"name":"Armidale","state":"New South Wales"},"coordinates":[9512,4082]},{"type":"Point","properties":{"name":"Broken Hill","state":"New South Wales"},"coordinates":[6952,3612]},{"type":"Point","properties":{"name":"Port Lincoln","state":"South Australia"},"coordinates":[5559,2701]},{"type":"Point","properties":{"name":"Whyalla","state":"South Australia"},"coordinates":[5983,3260]},{"type":"Point","properties":{"name":"Portland","state":"Victoria"},"coordinates":[6991,1522]},{"type":"Point","properties":{"name":"Bendigo","state":"Victoria"},"coordinates":[7664,2038]},{"type":"Point","properties":{"name":"Wangaratta","state":"Victoria"},"coordinates":[8169,2169]},{"type":"Point","properties":{"name":"Windorah","state":"Queensland"},"coordinates":[7256,5744]},{"type":"Point","properties":{"name":"Mount Isa","state":"Queensland"},"coordinates":[6465,7284]},{"type":"Point","properties":{"name":"Rockhampton","state":"Queensland"},"coordinates":[9225,6421]},{"type":"Point","properties":{"name":"Cairns","state":"Queensland"},"coordinates":[8035,8539]},{"type":"Point","properties":{"name":"Gold Coast","state":"Queensland"},"coordinates":[9958,4877]},{"type":"Point","properties":{"name":"Devonport","state":"Tasmania"},"coordinates":[8177,588]},{"type":"Point","properties":{"name":"Darwin","state":"Northern Territory"},"coordinates":[4304,9999]},{"type":"Point","properties":{"name":"Alice Springs","state":"Northern Territory"},"coordinates":[5062,6310]},{"type":"Point","properties":{"name":"Canberra","state":"Australian Capital Territory"},"coordinates":[8877,2522]},{"type":"Point","properties":{"name":"Newcastle","state":"New South Wales"},"coordinates":[9549,3319]},{"type":"Point","properties":{"name":"Adelaide","state":"South Australia"},"coordinates":[6242,2636]},{"type":"Point","properties":{"name":"Townsville","state":"Queensland"},"coordinates":[8287,7766]},{"type":"Point","properties":{"name":"Brisbane","state":"Queensland"},"coordinates":[9854,5083]},{"type":"Point","properties":{"name":"Hobart","state":"Tasmania"},"coordinates":[8418,46]},{"type":"Point","properties":{"name":"Perth","state":"Western Australia"},"coordinates":[547,3611]},{"type":"Point","properties":{"name":"Melbourne","state":"Victoria"},"coordinates":[7837,1692]},{"type":"Point","properties":{"name":"Sydney","state":"New South Wales"},"coordinates":[9391,2968]}]}},"arcs":[],"transform":{"scale":[0.003996677703268093,0.003056883976170263],"translate":[113.65010656642278,-42.99113686246022]}}