{"type":"Topology","objects":{"cities":{"type":"GeometryCollection","geometries":[{"type":"Point","properties":{"name":"Okayama","state":"Okayama"},"coordinates":[3738,4797]},{"type":"Point","properties":{"name":"Shimonoseki","state":"Yamaguchi"},"coordinates":[1959,4397]},{"type":"Point","properties":{"name":"Kanoya","state":"Kagoshima"},"coordinates":[1902,2934]},{"type":"Point","properties":{"name":"Takamatsu","state":"Kagawa"},"coordinates":[3815,4612]},{"type":"Point","properties":{"name":"Tokushima","state":"Tokushima"},"coordinates":[4119,4455]},{"type":"Point","properties":{"name":"Toyama","state":"Toyama"},"coordinates":[5722,5947]},{"type":"Point","properties":{"name":"Takaoka","state":"Toyama"},"coordinates":[5584,5930]},{"type":"Point","properties":{"name":"Otsu","state":"Shiga"},"coordinates":[4906,4987]},{"type":"Point","properties":{"name":"Maebashi","state":"Gunma"},"coordinates":[6825,5772]},{"type":"Point","properties":{"name":"Kawasaki","state":"Kanagawa"},"coordinates":[7203,5284]},{"type":"Point","properties":{"name":"Kawagoe","state":"Saitama"},"coordinates":[7075,5503]},{"type":"Point","properties":{"name":"Utsunomiya","state":"Tochigi"},"coordinates":[7302,5862]},{"type":"Point","properties":{"name":"Hachioji","state":"Tokyo"},"coordinates":[6976,5356]},{"type":"Point","properties":{"name":"Koriyama","state":"Fukushima"},"coordinates":[7607,6349]},{"type":"Point","properties":{"name":"Kure","state":"Hiroshima"},"coordinates":[2929,4559]},{"type":"Point","properties":{"name":"Matsue","state":"Shimane"},"coordinates":[3229,5248]},{"type":"Point","properties":{"name":"Tottori","state":"Tottori"},"coordinates":[3928,5267]},{"type":"Point","properties":{"name":"Sasebo","state":"Nagasaki"},"coordinates":[1224,3942]},{"type":"Point","properties":{"name":"Kitakyushu","state":"Fukuoka"},"coordinates":[1884,4343]},{"type":"Point","properties":{"name":"Kumamoto","state":"Kumamoto"},"coordinates":[1813,3737]},{"type":"Point","properties":{"name":"Oita","state":"Oita"},"coordinates":[2350,3988]},{"type":"Point","properties":{"name":"Gifu","state":"Gifu"},"coordinates":[5442,5223]},{"type":"Point","properties":{"name":"Tsu","state":"Mie"},"coordinates":[5295,4823]},{"type":"Point","properties":{"name":"Matsumoto","state":"Nagano"},"coordinates":[6165,5686]},{"type":"Point","properties":{"name":"Shizuoka","state":"Shizuoka"},"coordinates":[6413,4975]},{"type":"Point","properties":{"name":"Hamamatsu","state":"Shizuoka"},"coordinates":[6023,4823]},{"type":"Point","properties":{"name":"Obihiro","state":"Hokkaido"},"coordinates":[9278,9478]},{"type":"Point","properties":{"name":"Tomakomai","state":"Hokkaido"},"coordinates":[8308,9319]},{"type":"Point","properties":{"name":"Kitami","state":"Hokkaido"},"coordinates":[9715,9999]},{"type":"Point","properties":{"name":"Otaru","state":"Hokkaido"},"coordinates":[7966,9624]},{"type":"Point","properties":{"name":"Fukui","state":"Fukui"},"coordinates":[5117,5590]},{"type":"Point","properties":{"name":"Maizuru","state":"Kyoto"},"coordinates":[4586,5238]},{"type":"Point","properties":{"name":"Wakayama","state":"Wakayama"},"coordinates":[4487,4543]},{"type":"Point","properties":{"name":"Mito","state":"Ibaraki"},"coordinates":[7667,5760]},{"type":"Point","properties":{"name":"Kofu","state":"Yamanashi"},"coordinates":[6532,5352]},{"type":"Point","properties":{"name":"Iwaki","state":"Fukushima"},"coordinates":[7913,6148]},{"type":"Point","properties":{"name":"Nagaoka","state":"Niigata"},"coordinates":[6697,6372]},{"type":"Point","properties":{"name":"Yamagata","state":"Yamagata"},"coordinates":[7572,6837]},{"type":"Point","properties":{"name":"Tsuruoka","state":"Yamagata"},"coordinates":[7278,7080]},{"type":"Point","properties":{"name":"Kagoshima","state":"Kagoshima"},"coordinates":[1729,3048]},{"type":"Point","properties":{"name":"Matsuyama","state":"Ehime"},"coordinates":[3049,4329]},{"type":"Point","properties":{"name":"Kanazawa","state":"Ishikawa"},"coordinates":[5368,5867]},{"type":"Point","properties":{"name":"Muroran","state":"Hokkaido"},"coordinates":[7967,9149]},{"type":"Point","properties":{"name":"Asahikawa","state":"Hokkaido"},"coordinates":[8805,9945]},{"type":"Point","properties":{"name":"Kobe","state":"Hyogo"},"coordinates":[4488,4802]},{"type":"Point","properties":{"name":"Yokohama","state":"Kanagawa"},"coordinates":[7129,5165]},{"type":"Point","properties":{"name":"Akita","state":"Akita"},"coordinates":[7434,7653]},{"type":"Point","properties":{"name":"Aomori","state":"Aomori"},"coordinates":[7805,8284]},{"type":"Point","properties":{"name":"Hirosaki","state":"Aomori"},"coordinates":[7661,8140]},{"type":"Point","properties":{"name":"Hachinohe","state":"Aomori"},"coordinates":[8302,8106]},{"type":"Point","properties":{"name":"Fukushima","state":"Fukushima"},"coordinates":[7661,6536]},{"type":"Point","properties":{"name":"Morioka","state":"Iwate"},"coordinates":[8056,7658]},{"type":"Point","properties":{"name":"Niigata","state":"Niigata"},"coordinates":[6805,6638]},{"type":"Point","properties":{"name":"Fukuoka","state":"Fukuoka"},"coordinates":[1637,4188]},{"type":"Point","properties":{"name":"Miyazaki","state":"Miyazaki"},"coordinates":[2242,3237]},{"type":"Point","properties":{"name":"Naha","state":"Okinawa"},"coordinates":[0,0]},{"type":"Point","properties":{"name":"Kochi","state":"Kochi"},"coordinates":[3511,4168]},{"type":"Point","properties":{"name":"Nagoya","state":"Aichi"},"coordinates":[5532,5072]},{"type":"Point","properties":{"name":"Nagano","state":"Nagano"},"coordinates":[6284,5918]},{"type":"Point","properties":{"name":"Kushiro","state":"Hokkaido"},"coordinates":[9999,9503]},{"type":"Point","properties":{"name":"Hakodate","state":"Hokkaido"},"coordinates":[7823,8834]},{"type":"Point","properties":{"name":"Kyoto","state":"Kyoto"},"coordinates":[4834,5001]},{"type":"Point","properties":{"name":"Sendai","state":"Miyagi"},"coordinates":[7990,6847]},{"type":"Point","properties":{"name":"Sakata","state":"Yamagata"},"coordinates":[7290,7205]},{"type":"Point","properties":{"name":"Nagasaki","state":"Nagasaki"},"coordinates":[1324,3717]},{"type":"Point","properties":{"name":"Hiroshima","state":"Hiroshima"},"coordinates":[2855,4637]},{"type":"Point","properties":{"name":"Sapporo","state":"Hokkaido"},"coordinates":[8181,9561]},{"type":"Point","properties":{"name":"Osaka","state":"Osaka"},"coordinates":[4661,4843]},{"type":"Point","properties":{"name":"Tokyo","state":"Tokyo"},"coordinates":[7230,5373]}]}},"arcs":[],"transform":{"scale":[0.0016703389902858947,0.001764495114069252],"translate":[127.67297155671349,26.20717165018641]}}