{"type":"Topology","objects":{"cities":{"type":"GeometryCollection","geometries":[{"type":"Point","properties":{"name":"Faribault","state":"Minnesota"},"coordinates":[7566,4771]},{"type":"Point","properties":{"name":"Mankato","state":"Minnesota"},"coordinates":[7498,4746]},{"type":"Point","properties":{"name":"Albert Lea","state":"Minnesota"},"coordinates":[7557,4646]},{"type":"Point","properties":{"name":"Willmar","state":"Minnesota"},"coordinates":[7400,4932]},{"type":"Point","properties":{"name":"Brainerd","state":"Minnesota"},"coordinates":[7479,5171]},{"type":"Point","properties":{"name":"Crookston","state":"Minnesota"},"coordinates":[7254,5445]},{"type":"Point","properties":{"name":"Hardin","state":"Montana"},"coordinates":[6225,5050]},{"type":"Point","properties":{"name":"Glendive","state":"Montana"},"coordinates":[6496,5317]},{"type":"Point","properties":{"name":"Dillon","state":"Montana"},"coordinates":[5751,4950]},{"type":"Point","properties":{"name":"Polson","state":"Montana"},"coordinates":[5613,5429]},{"type":"Point","properties":{"name":"Devils Lake","state":"North Dakota"},"coordinates":[7043,5511]},{"type":"Point","properties":{"name":"Burley","state":"Idaho"},"coordinates":[5647,4431]},{"type":"Point","properties":{"name":"Wallace","state":"Idaho"},"coordinates":[5448,5387]},{"type":"Point","properties":{"name":"Kennewick","state":"Washington"},"coordinates":[5148,5143]},{"type":"Point","properties":{"name":"Centralia","state":"Washington"},"coordinates":[4791,5241]},{"type":"Point","properties":{"name":"Glendale","state":"Arizona"},"coordinates":[5797,2697]},{"type":"Point","properties":{"name":"Safford","state":"Arizona"},"coordinates":[6029,2552]},{"type":"Point","properties":{"name":"Casa Grande","state":"Arizona"},"coordinates":[5838,2561]},{"type":"Point","properties":{"name":"Mesa","state":"Arizona"},"coordinates":[5840,2667]},{"type":"Point","properties":{"name":"Lake Havasu City","state":"Arizona"},"coordinates":[5599,2875]},{"type":"Point","properties":{"name":"Berkeley","state":"California"},"coordinates":[4855,3528]},{"type":"Point","properties":{"name":"National City","state":"California"},"coordinates":[5338,2521]},{"type":"Point","properties":{"name":"Mendocino","state":"California"},"coordinates":[4712,3806]},{"type":"Point","properties":{"name":"Paso Robles","state":"California"},"coordinates":[5002,3093]},{"type":"Point","properties":{"name":"Riverside","state":"California"},"coordinates":[5310,2767]},{"type":"Point","properties":{"name":"Delano","state":"California"},"coordinates":[5138,3119]},{"type":"Point","properties":{"name":"San Mateo","state":"California"},"coordinates":[4851,3467]},{"type":"Point","properties":{"name":"Vallejo","state":"California"},"coordinates":[4856,3574]},{"type":"Point","properties":{"name":"Glenwood Springs","state":"Colorado"},"coordinates":[6252,3852]},{"type":"Point","properties":{"name":"Aurora","state":"Colorado"},"coordinates":[6487,3881]},{"type":"Point","properties":{"name":"Greeley","state":"Colorado"},"coordinates":[6494,4021]},{"type":"Point","properties":{"name":"Tonopah","state":"Nevada"},"coordinates":[5326,3566]},{"type":"Point","properties":{"name":"Deming","state":"New Mexico"},"coordinates":[6212,2442]},{"type":"Point","properties":{"name":"Truth or Consequences","state":"New Mexico"},"coordinates":[6259,2610]},{"type":"Point","properties":{"name":"Las Vegas","state":"New Mexico"},"coordinates":[6448,3087]},{"type":"Point","properties":{"name":"Farmington","state":"New Mexico"},"coordinates":[6171,3312]},{"type":"Point","properties":{"name":"Springfield","state":"Oregon"},"coordinates":[4789,4725]},{"type":"Point","properties":{"name":"Tillamook","state":"Oregon"},"coordinates":[4708,4996]},{"type":"Point","properties":{"name":"Ontario","state":"Oregon"},"coordinates":[5351,4720]},{"type":"Point","properties":{"name":"La Grande","state":"Oregon"},"coordinates":[5246,4971]},{"type":"Point","properties":{"name":"Richfield","state":"Utah"},"coordinates":[5807,3702]},{"type":"Point","properties":{"name":"Nephi","state":"Utah"},"coordinates":[5830,3884]},{"type":"Point","properties":{"name":"Lander","state":"Wyoming"},"coordinates":[6120,4489]},{"type":"Point","properties":{"name":"Powell","state":"Wyoming"},"coordinates":[6118,4861]},{"type":"Point","properties":{"name":"Paragould","state":"Arkansas"},"coordinates":[7824,3177]},{"type":"Point","properties":{"name":"Iowa City","state":"Iowa"},"coordinates":[7728,4262]},{"type":"Point","properties":{"name":"Ottumwa","state":"Iowa"},"coordinates":[7646,4136]},{"type":"Point","properties":{"name":"Spencer","state":"Iowa"},"coordinates":[7390,4549]},{"type":"Point","properties":{"name":"Ft. Dodge","state":"Iowa"},"coordinates":[7481,4425]},{"type":"Point","properties":{"name":"Hutchinson","state":"Kansas"},"coordinates":[7131,3565]},{"type":"Point","properties":{"name":"Kansas City","state":"Kansas"},"coordinates":[7439,3768]},{"type":"Point","properties":{"name":"Lawrence","state":"Kansas"},"coordinates":[7380,3739]},{"type":"Point","properties":{"name":"Garden City","state":"Kansas"},"coordinates":[6856,3548]},{"type":"Point","properties":{"name":"Manhattan","state":"Kansas"},"coordinates":[7255,3784]},{"type":"Point","properties":{"name":"Hays","state":"Kansas"},"coordinates":[7000,3723]},{"type":"Point","properties":{"name":"Goodland","state":"Kansas"},"coordinates":[6777,3814]},{"type":"Point","properties":{"name":"Independence","state":"Missouri"},"coordinates":[7459,3764]},{"type":"Point","properties":{"name":"Kirksville","state":"Missouri"},"coordinates":[7630,3978]},{"type":"Point","properties":{"name":"Kearney","state":"Nebraska"},"coordinates":[7023,4076]},{"type":"Point","properties":{"name":"Grand Island","state":"Nebraska"},"coordinates":[7090,4119]},{"type":"Point","properties":{"name":"Alliance","state":"Nebraska"},"coordinates":[6668,4347]},{"type":"Point","properties":{"name":"Bartlesville","state":"Oklahoma"},"coordinates":[7312,3310]},{"type":"Point","properties":{"name":"Enid","state":"Oklahoma"},"coordinates":[7135,3242]},{"type":"Point","properties":{"name":"Ardmore","state":"Oklahoma"},"coordinates":[7205,2813]},{"type":"Point","properties":{"name":"McAlester","state":"Oklahoma"},"coordinates":[7332,2959]},{"type":"Point","properties":{"name":"Stillwater","state":"Oklahoma"},"coordinates":[7211,3192]},{"type":"Point","properties":{"name":"Lead","state":"South Dakota"},"coordinates":[6585,4783]},{"type":"Point","properties":{"name":"Slidell","state":"Louisiana"},"coordinates":[7892,2057]},{"type":"Point","properties":{"name":"Lake Charles","state":"Louisiana"},"coordinates":[7571,2048]},{"type":"Point","properties":{"name":"Metairie","state":"Louisiana"},"coordinates":[7857,2001]},{"type":"Point","properties":{"name":"New Iberia","state":"Louisiana"},"coordinates":[7702,2004]},{"type":"Point","properties":{"name":"Bryan","state":"Texas"},"coordinates":[7276,2134]},{"type":"Point","properties":{"name":"San Marcos","state":"Texas"},"coordinates":[7129,1981]},{"type":"Point","properties":{"name":"Longview","state":"Texas"},"coordinates":[7428,2488]},{"type":"Point","properties":{"name":"McAllen","state":"Texas"},"coordinates":[7102,1268]},{"type":"Point","properties":{"name":"Harlingen","state":"Texas"},"coordinates":[7153,1267]},{"type":"Point","properties":{"name":"Alice","state":"Texas"},"coordinates":[7117,1568]},{"type":"Point","properties":{"name":"New Braunfels","state":"Texas"},"coordinates":[7112,1945]},{"type":"Point","properties":{"name":"Cleburne","state":"Texas"},"coordinates":[7180,2459]},{"type":"Point","properties":{"name":"Brownwood","state":"Texas"},"coordinates":[7032,2334]},{"type":"Point","properties":{"name":"Alpine","state":"Texas"},"coordinates":[6594,2074]},{"type":"Point","properties":{"name":"Van Horn","state":"Texas"},"coordinates":[6485,2206]},{"type":"Point","properties":{"name":"Big Spring","state":"Texas"},"coordinates":[6799,2438]},{"type":"Point","properties":{"name":"Vernon","state":"Texas"},"coordinates":[7003,2807]},{"type":"Point","properties":{"name":"Childress","state":"Texas"},"coordinates":[6917,2860]},{"type":"Point","properties":{"name":"Hereford","state":"Texas"},"coordinates":[6712,2937]},{"type":"Point","properties":{"name":"Dalhart","state":"Texas"},"coordinates":[6701,3177]},{"type":"Point","properties":{"name":"Texas City","state":"Texas"},"coordinates":[7408,1890]},{"type":"Point","properties":{"name":"Pasadena","state":"Texas"},"coordinates":[7390,1938]},{"type":"Point","properties":{"name":"Baytown","state":"Texas"},"coordinates":[7407,1956]},{"type":"Point","properties":{"name":"Arlington","state":"Texas"},"coordinates":[7215,2524]},{"type":"Point","properties":{"name":"New London","state":"Connecticut"},"coordinates":[9545,4203]},{"type":"Point","properties":{"name":"Stamford","state":"Connecticut"},"coordinates":[9410,4144]},{"type":"Point","properties":{"name":"Waterbury","state":"Connecticut"},"coordinates":[9456,4240]},{"type":"Point","properties":{"name":"New Bedford","state":"Massachusetts"},"coordinates":[9653,4261]},{"type":"Point","properties":{"name":"Springfield","state":"Massachusetts"},"coordinates":[9500,4351]},{"type":"Point","properties":{"name":"Salem","state":"Massachusetts"},"coordinates":[9659,4428]},{"type":"Point","properties":{"name":"Pittsfield","state":"Massachusetts"},"coordinates":[9436,4414]},{"type":"Point","properties":{"name":"Montpelier","state":"Vermont"},"coordinates":[9500,4765]},{"type":"Point","properties":{"name":"Auburn","state":"Alabama"},"coordinates":[8294,2509]},{"type":"Point","properties":{"name":"Florence","state":"Alabama"},"coordinates":[8089,2933]},{"type":"Point","properties":{"name":"Winter Haven","state":"Florida"},"coordinates":[8644,1621]},{"type":"Point","properties":{"name":"Melbourne","state":"Florida"},"coordinates":[8749,1633]},{"type":"Point","properties":{"name":"Homestead","state":"Florida"},"coordinates":[8762,1126]},{"type":"Point","properties":{"name":"Sanford","state":"Florida"},"coordinates":[8687,1769]},{"type":"Point","properties":{"name":"Miami Beach","state":"Florida"},"coordinates":[8794,1192]},{"type":"Point","properties":{"name":"Coral Springs","state":"Florida"},"coordinates":[8781,1282]},{"type":"Point","properties":{"name":"Port Charlotte","state":"Florida"},"coordinates":[8610,1423]},{"type":"Point","properties":{"name":"Spring Hill","state":"Florida"},"coordinates":[8568,1709]},{"type":"Point","properties":{"name":"Palm Coast","state":"Florida"},"coordinates":[8692,1914]},{"type":"Point","properties":{"name":"Palatka","state":"Florida"},"coordinates":[8652,1935]},{"type":"Point","properties":{"name":"Leesburg","state":"Florida"},"coordinates":[8630,1773]},{"type":"Point","properties":{"name":"Lake City","state":"Florida"},"coordinates":[8560,2040]},{"type":"Point","properties":{"name":"Crestview","state":"Florida"},"coordinates":[8192,2150]},{"type":"Point","properties":{"name":"Panama City","state":"Florida"},"coordinates":[8278,2034]},{"type":"Point","properties":{"name":"Dalton","state":"Georgia"},"coordinates":[8342,2927]},{"type":"Point","properties":{"name":"Marietta","state":"Georgia"},"coordinates":[8382,2770]},{"type":"Point","properties":{"name":"Waycross","state":"Georgia"},"coordinates":[8586,2239]},{"type":"Point","properties":{"name":"La Grange","state":"Georgia"},"coordinates":[8336,2592]},{"type":"Point","properties":{"name":"Southaven","state":"Mississippi"},"coordinates":[7871,2966]},{"type":"Point","properties":{"name":"Meridian","state":"Mississippi"},"coordinates":[7993,2461]},{"type":"Point","properties":{"name":"Laurel","state":"Mississippi"},"coordinates":[7952,2332]},{"type":"Point","properties":{"name":"Spartanburg","state":"South Carolina"},"coordinates":[8626,2962]},{"type":"Point","properties":{"name":"Orangeburg","state":"South Carolina"},"coordinates":[8726,2681]},{"type":"Point","properties":{"name":"Galesburg","state":"Illinois"},"coordinates":[7837,4124]},{"type":"Point","properties":{"name":"Joliet","state":"Illinois"},"coordinates":[8049,4236]},{"type":"Point","properties":{"name":"Cape Girardeau","state":"Illinois"},"coordinates":[7917,3418]},{"type":"Point","properties":{"name":"Rockford","state":"Illinois"},"coordinates":[7958,4380]},{"type":"Point","properties":{"name":"Evanston","state":"Illinois"},"coordinates":[8087,4337]},{"type":"Point","properties":{"name":"Rock Island","state":"Illinois"},"coordinates":[7822,4229]},{"type":"Point","properties":{"name":"Elgin","state":"Illinois"},"coordinates":[8031,4335]},{"type":"Point","properties":{"name":"Richmond","state":"Indiana"},"coordinates":[8349,3907]},{"type":"Point","properties":{"name":"Terre Haute","state":"Indiana"},"coordinates":[8113,3837]},{"type":"Point","properties":{"name":"Lafayette","state":"Indiana"},"coordinates":[8163,4021]},{"type":"Point","properties":{"name":"Marion","state":"Indiana"},"coordinates":[8277,4048]},{"type":"Point","properties":{"name":"South Bend","state":"Indiana"},"coordinates":[8222,4266]},{"type":"Point","properties":{"name":"New Albany","state":"Indiana"},"coordinates":[8262,3613]},{"type":"Point","properties":{"name":"Elkhart","state":"Indiana"},"coordinates":[8248,4266]},{"type":"Point","properties":{"name":"Hopkinsville","state":"Kentucky"},"coordinates":[8106,3333]},{"type":"Point","properties":{"name":"London","state":"Kentucky"},"coordinates":[8425,3384]},{"type":"Point","properties":{"name":"Madisonville","state":"Kentucky"},"coordinates":[8105,3424]},{"type":"Point","properties":{"name":"Rocky Mount","state":"North Carolina"},"coordinates":[9013,3153]},{"type":"Point","properties":{"name":"Salisbury","state":"North Carolina"},"coordinates":[8762,3102]},{"type":"Point","properties":{"name":"Durham","state":"North Carolina"},"coordinates":[8907,3165]},{"type":"Point","properties":{"name":"Lumberton","state":"North Carolina"},"coordinates":[8899,2900]},{"type":"Point","properties":{"name":"Zanesville","state":"Ohio"},"coordinates":[8618,3928]},{"type":"Point","properties":{"name":"Mansfield","state":"Ohio"},"coordinates":[8571,4087]},{"type":"Point","properties":{"name":"Bowling Green","state":"Ohio"},"coordinates":[8465,4206]},{"type":"Point","properties":{"name":"Springfield","state":"Ohio"},"coordinates":[8451,3925]},{"type":"Point","properties":{"name":"Lancaster","state":"Ohio"},"coordinates":[8563,3886]},{"type":"Point","properties":{"name":"Johnson City","state":"Tennessee"},"coordinates":[8586,3226]},{"type":"Point","properties":{"name":"Kingsport","state":"Tennessee"},"coordinates":[8567,3272]},{"type":"Point","properties":{"name":"Columbia","state":"Tennessee"},"coordinates":[8149,3091]},{"type":"Point","properties":{"name":"Barlett","state":"Tennessee"},"coordinates":[7886,3015]},{"type":"Point","properties":{"name":"Blacksburg","state":"Virginia"},"coordinates":[8768,3404]},{"type":"Point","properties":{"name":"Harrisonburg","state":"Virginia"},"coordinates":[8912,3640]},{"type":"Point","properties":{"name":"Petersburg","state":"Virginia"},"coordinates":[9049,3403]},{"type":"Point","properties":{"name":"Hampton","state":"Virginia"},"coordinates":[9148,3365]},{"type":"Point","properties":{"name":"Sheboygan","state":"Wisconsin"},"coordinates":[8085,4666]},{"type":"Point","properties":{"name":"Waukesha","state":"Wisconsin"},"coordinates":[8037,4523]},{"type":"Point","properties":{"name":"La Crosse","state":"Wisconsin"},"coordinates":[7756,4676]},{"type":"Point","properties":{"name":"Eau Claire","state":"Wisconsin"},"coordinates":[7731,4872]},{"type":"Point","properties":{"name":"Tomah","state":"Wisconsin"},"coordinates":[7824,4712]},{"type":"Point","properties":{"name":"Janesville","state":"Wisconsin"},"coordinates":[7963,4459]},{"type":"Point","properties":{"name":"Appleton","state":"Wisconsin"},"coordinates":[8021,4767]},{"type":"Point","properties":{"name":"Parkersburg","state":"West Virginia"},"coordinates":[8660,3798]},{"type":"Point","properties":{"name":"White Sulphur Springs","state":"West Virginia"},"coordinates":[8778,3513]},{"type":"Point","properties":{"name":"Clarksburg","state":"West Virginia"},"coordinates":[8775,3801]},{"type":"Point","properties":{"name":"Dover","state":"Delaware"},"coordinates":[9225,3777]},{"type":"Point","properties":{"name":"St. Charles","state":"Maryland"},"coordinates":[9093,3670]},{"type":"Point","properties":{"name":"Annapolis","state":"Maryland"},"coordinates":[9134,3742]},{"type":"Point","properties":{"name":"Hagerstown","state":"Maryland"},"coordinates":[9019,3871]},{"type":"Point","properties":{"name":"Paterson","state":"New Jersey"},"coordinates":[9351,4118]},{"type":"Point","properties":{"name":"Saratoga Springs","state":"New York"},"coordinates":[9387,4537]},{"type":"Point","properties":{"name":"Poughkeepsie","state":"New York"},"coordinates":[9375,4269]},{"type":"Point","properties":{"name":"Plattsburg","state":"New York"},"coordinates":[9418,4849]},{"type":"Point","properties":{"name":"Beaver Falls","state":"Pennsylvania"},"coordinates":[8776,4086]},{"type":"Point","properties":{"name":"Altoona","state":"Pennsylvania"},"coordinates":[8956,4040]},{"type":"Point","properties":{"name":"Williamsport","state":"Pennsylvania"},"coordinates":[9087,4180]},{"type":"Point","properties":{"name":"Lancaster","state":"Pennsylvania"},"coordinates":[9152,3947]},{"type":"Point","properties":{"name":"Allentown","state":"Pennsylvania"},"coordinates":[9227,4056]},{"type":"Point","properties":{"name":"Waterville","state":"Maine"},"coordinates":[9774,4821]},{"type":"Point","properties":{"name":"Calais","state":"Maine"},"coordinates":[9999,4940]},{"type":"Point","properties":{"name":"Houlton","state":"Maine"},"coordinates":[9943,5126]},{"type":"Point","properties":{"name":"Benton Harbor","state":"Michigan"},"coordinates":[8203,4350]},{"type":"Point","properties":{"name":"Battle Creek","state":"Michigan"},"coordinates":[8322,4389]},{"type":"Point","properties":{"name":"Bay City","state":"Michigan"},"coordinates":[8443,4636]},{"type":"Point","properties":{"name":"Alpena","state":"Michigan"},"coordinates":[8485,4920]},{"type":"Point","properties":{"name":"Iron Mountain","state":"Michigan"},"coordinates":[8052,5067]},{"type":"Point","properties":{"name":"Ironwood","state":"Michigan"},"coordinates":[7857,5190]},{"type":"Point","properties":{"name":"Sand Point","state":"Alaska"},"coordinates":[1281,6910]},{"type":"Point","properties":{"name":"Hydaburg","state":"Alaska"},"coordinates":[3870,6886]},{"type":"Point","properties":{"name":"Mekoryuk","state":"Alaska"},"coordinates":[749,7888]},{"type":"Point","properties":{"name":"Atqasuk","state":"Alaska"},"coordinates":[1571,9840]},{"type":"Point","properties":{"name":"Port Heiden","state":"Alaska"},"coordinates":[1456,7222]},{"type":"Point","properties":{"name":"Perryville","state":"Alaska"},"coordinates":[1407,7022]},{"type":"Point","properties":{"name":"Dillingham","state":"Alaska"},"coordinates":[1470,7630]},{"type":"Point","properties":{"name":"Goodnews Bay","state":"Alaska"},"coordinates":[1179,7643]},{"type":"Point","properties":{"name":"Nyac","state":"Alaska"},"coordinates":[1333,8007]},{"type":"Point","properties":{"name":"Tununak","state":"Alaska"},"coordinates":[836,7926]},{"type":"Point","properties":{"name":"Mountain Village","state":"Alaska"},"coordinates":[979,8217]},{"type":"Point","properties":{"name":"Emmonak","state":"Alaska"},"coordinates":[905,8350]},{"type":"Point","properties":{"name":"Kaltag","state":"Alaska"},"coordinates":[1447,8651]},{"type":"Point","properties":{"name":"Teller","state":"Alaska"},"coordinates":[733,8832]},{"type":"Point","properties":{"name":"Koyukuk","state":"Alaska"},"coordinates":[1542,8758]},{"type":"Point","properties":{"name":"Kobuk","state":"Alaska"},"coordinates":[1619,9150]},{"type":"Point","properties":{"name":"Selawik","state":"Alaska"},"coordinates":[1327,9091]},{"type":"Point","properties":{"name":"Talkeetna","state":"Alaska"},"coordinates":[2252,8263]},{"type":"Point","properties":{"name":"Whittier","state":"Alaska"},"coordinates":[2386,7965]},{"type":"Point","properties":{"name":"Montana","state":"Alaska"},"coordinates":[2256,8215]},{"type":"Point","properties":{"name":"Lake Minchumina","state":"Alaska"},"coordinates":[2046,8565]},{"type":"Point","properties":{"name":"Cantwell","state":"Alaska"},"coordinates":[2360,8469]},{"type":"Point","properties":{"name":"Gulkana","state":"Alaska"},"coordinates":[2694,8253]},{"type":"Point","properties":{"name":"Eagle","state":"Alaska"},"coordinates":[3085,8740]},{"type":"Point","properties":{"name":"Nenana","state":"Alaska"},"coordinates":[2347,8696]},{"type":"Point","properties":{"name":"Big Delta","state":"Alaska"},"coordinates":[2651,8617]},{"type":"Point","properties":{"name":"Allakaket","state":"Alaska"},"coordinates":[2015,9084]},{"type":"Point","properties":{"name":"Tanana","state":"Alaska"},"coordinates":[2068,8814]},{"type":"Point","properties":{"name":"Virginia","state":"Minnesota"},"coordinates":[7634,5397]},{"type":"Point","properties":{"name":"Winona","state":"Minnesota"},"coordinates":[7718,4724]},{"type":"Point","properties":{"name":"Rochester","state":"Minnesota"},"coordinates":[7641,4719]},{"type":"Point","properties":{"name":"Lakeville","state":"Minnesota"},"coordinates":[7568,4840]},{"type":"Point","properties":{"name":"Ely","state":"Minnesota"},"coordinates":[7701,5470]},{"type":"Point","properties":{"name":"Moorhead","state":"Minnesota"},"coordinates":[7241,5271]},{"type":"Point","properties":{"name":"St. Cloud","state":"Minnesota"},"coordinates":[7482,5017]},{"type":"Point","properties":{"name":"Miles City","state":"Montana"},"coordinates":[6391,5181]},{"type":"Point","properties":{"name":"Bozeman","state":"Montana"},"coordinates":[5905,5040]},{"type":"Point","properties":{"name":"Glasgow","state":"Montana"},"coordinates":[6316,5525]},{"type":"Point","properties":{"name":"Dickinson","state":"North Dakota"},"coordinates":[6676,5273]},{"type":"Point","properties":{"name":"Jamestown","state":"North Dakota"},"coordinates":[7058,5277]},{"type":"Point","properties":{"name":"Williston","state":"North Dakota"},"coordinates":[6597,5519]},{"type":"Point","properties":{"name":"Lihue","state":"Hawaii"},"coordinates":[1386,451]},{"type":"Point","properties":{"name":"Wahiawa","state":"Hawaii"},"coordinates":[1512,358]},{"type":"Point","properties":{"name":"Wailuku","state":"Hawaii"},"coordinates":[1654,240]},{"type":"Point","properties":{"name":"Montpelier","state":"Idaho"},"coordinates":[5881,4390]},{"type":"Point","properties":{"name":"Twin Falls","state":"Idaho"},"coordinates":[5585,4436]},{"type":"Point","properties":{"name":"Caldwell","state":"Idaho"},"coordinates":[5378,4649]},{"type":"Point","properties":{"name":"Salmon","state":"Idaho"},"coordinates":[5638,4942]},{"type":"Point","properties":{"name":"Coeur d'Alene","state":"Idaho"},"coordinates":[5368,5427]},{"type":"Point","properties":{"name":"Richland","state":"Washington"},"coordinates":[5133,5158]},{"type":"Point","properties":{"name":"Bellingham","state":"Washington"},"coordinates":[4834,5636]},{"type":"Point","properties":{"name":"Longview","state":"Washington"},"coordinates":[4792,5129]},{"type":"Point","properties":{"name":"Walla Walla","state":"Washington"},"coordinates":[5222,5114]},{"type":"Point","properties":{"name":"Aberdeen","state":"Washington"},"coordinates":[4710,5291]},{"type":"Point","properties":{"name":"Bremerton","state":"Washington"},"coordinates":[4820,5407]},{"type":"Point","properties":{"name":"Everett","state":"Washington"},"coordinates":[4861,5481]},{"type":"Point","properties":{"name":"Bullhead City","state":"Arizona"},"coordinates":[5575,3001]},{"type":"Point","properties":{"name":"Winslow","state":"Arizona"},"coordinates":[5936,3027]},{"type":"Point","properties":{"name":"Gila Bend","state":"Arizona"},"coordinates":[5747,2575]},{"type":"Point","properties":{"name":"Tombstone","state":"Arizona"},"coordinates":[5996,2335]},{"type":"Point","properties":{"name":"Willcox","state":"Arizona"},"coordinates":[6018,2440]},{"type":"Point","properties":{"name":"Scottsdale","state":"Arizona"},"coordinates":[5827,2719]},{"type":"Point","properties":{"name":"Kingman","state":"Arizona"},"coordinates":[5623,3009]},{"type":"Point","properties":{"name":"Grand Canyon","state":"Arizona"},"coordinates":[5802,3176]},{"type":"Point","properties":{"name":"Arcata","state":"California"},"coordinates":[4685,4111]},{"type":"Point","properties":{"name":"Stockton","state":"California"},"coordinates":[4946,3545]},{"type":"Point","properties":{"name":"Barstow","state":"California"},"coordinates":[5345,2952]},{"type":"Point","properties":{"name":"Victorville","state":"California"},"coordinates":[5320,2882]},{"type":"Point","properties":{"name":"Pasadena","state":"California"},"coordinates":[5241,2809]},{"type":"Point","properties":{"name":"Visalia","state":"California"},"coordinates":[5131,3228]},{"type":"Point","properties":{"name":"El Centro","state":"California"},"coordinates":[5482,2544]},{"type":"Point","properties":{"name":"San Luis Obispo","state":"California"},"coordinates":[5005,3027]},{"type":"Point","properties":{"name":"Merced","state":"California"},"coordinates":[5022,3418]},{"type":"Point","properties":{"name":"Yuba City","state":"California"},"coordinates":[4916,3774]},{"type":"Point","properties":{"name":"Redding","state":"California"},"coordinates":[4843,4054]},{"type":"Point","properties":{"name":"Santa Rosa","state":"California"},"coordinates":[4815,3640]},{"type":"Point","properties":{"name":"Oceanside","state":"California"},"coordinates":[5316,2627]},{"type":"Point","properties":{"name":"Modesto","state":"California"},"coordinates":[4974,3486]},{"type":"Point","properties":{"name":"Irvine","state":"California"},"coordinates":[5270,2716]},{"type":"Point","properties":{"name":"Ukiah","state":"California"},"coordinates":[4767,3776]},{"type":"Point","properties":{"name":"Needles","state":"California"},"coordinates":[5571,2943]},{"type":"Point","properties":{"name":"Bishop","state":"California"},"coordinates":[5217,3430]},{"type":"Point","properties":{"name":"Palm Springs","state":"California"},"coordinates":[5391,2735]},{"type":"Point","properties":{"name":"Santa Maria","state":"California"},"coordinates":[5026,2960]},{"type":"Point","properties":{"name":"Tulare","state":"California"},"coordinates":[5128,3206]},{"type":"Point","properties":{"name":"Mt. Shasta","state":"California"},"coordinates":[4851,4194]},{"type":"Point","properties":{"name":"Crescent City","state":"California"},"coordinates":[4674,4280]},{"type":"Point","properties":{"name":"Fort Collins","state":"Colorado"},"coordinates":[6464,4049]},{"type":"Point","properties":{"name":"Pueblo","state":"Colorado"},"coordinates":[6504,3607]},{"type":"Point","properties":{"name":"Lamar","state":"Colorado"},"coordinates":[6692,3570]},{"type":"Point","properties":{"name":"Trinidad","state":"Colorado"},"coordinates":[6515,3392]},{"type":"Point","properties":{"name":"Gunnison","state":"Colorado"},"coordinates":[6289,3658]},{"type":"Point","properties":{"name":"Durango","state":"Colorado"},"coordinates":[6200,3413]},{"type":"Point","properties":{"name":"Montrose","state":"Colorado"},"coordinates":[6201,3645]},{"type":"Point","properties":{"name":"Craig","state":"Colorado"},"coordinates":[6231,4040]},{"type":"Point","properties":{"name":"Boulder","state":"Colorado"},"coordinates":[6446,3947]},{"type":"Point","properties":{"name":"Boulder City","state":"Nevada"},"coordinates":[5550,3161]},{"type":"Point","properties":{"name":"Winnemucca","state":"Nevada"},"coordinates":[5279,4129]},{"type":"Point","properties":{"name":"Roswell","state":"New Mexico"},"coordinates":[6514,2661]},{"type":"Point","properties":{"name":"Clovis","state":"New Mexico"},"coordinates":[6637,2857]},{"type":"Point","properties":{"name":"Las Cruces","state":"New Mexico"},"coordinates":[6303,2451]},{"type":"Point","properties":{"name":"Hobbs","state":"New Mexico"},"coordinates":[6643,2529]},{"type":"Point","properties":{"name":"Socorro","state":"New Mexico"},"coordinates":[6292,2790]},{"type":"Point","properties":{"name":"Gallup","state":"New Mexico"},"coordinates":[6120,3073]},{"type":"Point","properties":{"name":"Raton","state":"New Mexico"},"coordinates":[6522,3339]},{"type":"Point","properties":{"name":"Tucumcari","state":"New Mexico"},"coordinates":[6588,3005]},{"type":"Point","properties":{"name":"Roseburg","state":"Oregon"},"coordinates":[4753,4563]},{"type":"Point","properties":{"name":"Pendleton","state":"Oregon"},"coordinates":[5180,5038]},{"type":"Point","properties":{"name":"John Day","state":"Oregon"},"coordinates":[5165,4795]},{"type":"Point","properties":{"name":"Grants Pass","state":"Oregon"},"coordinates":[4756,4412]},{"type":"Point","properties":{"name":"Corvallis","state":"Oregon"},"coordinates":[4760,4825]},{"type":"Point","properties":{"name":"Albany","state":"Oregon"},"coordinates":[4778,4835]},{"type":"Point","properties":{"name":"Astoria","state":"Oregon"},"coordinates":[4709,5138]},{"type":"Point","properties":{"name":"Logan","state":"Utah"},"coordinates":[5830,4276]},{"type":"Point","properties":{"name":"Parowan","state":"Utah"},"coordinates":[5737,3522]},{"type":"Point","properties":{"name":"Kanab","state":"Utah"},"coordinates":[5766,3368]},{"type":"Point","properties":{"name":"Monticello","state":"Utah"},"coordinates":[6063,3528]},{"type":"Point","properties":{"name":"Moab","state":"Utah"},"coordinates":[6044,3664]},{"type":"Point","properties":{"name":"Price","state":"Utah"},"coordinates":[5926,3863]},{"type":"Point","properties":{"name":"Cedar City","state":"Utah"},"coordinates":[5716,3490]},{"type":"Point","properties":{"name":"Vernal","state":"Utah"},"coordinates":[6046,4028]},{"type":"Point","properties":{"name":"Ogden","state":"Utah"},"coordinates":[5818,4179]},{"type":"Point","properties":{"name":"Green River","state":"Wyoming"},"coordinates":[6052,4233]},{"type":"Point","properties":{"name":"Rawlins","state":"Wyoming"},"coordinates":[6260,4287]},{"type":"Point","properties":{"name":"Douglas","state":"Wyoming"},"coordinates":[6433,4474]},{"type":"Point","properties":{"name":"Riverton","state":"Wyoming"},"coordinates":[6152,4526]},{"type":"Point","properties":{"name":"Thermopolis","state":"Wyoming"},"coordinates":[6169,4646]},{"type":"Point","properties":{"name":"Gillette","state":"Wyoming"},"coordinates":[6422,4769]},{"type":"Point","properties":{"name":"Jonesboro","state":"Arkansas"},"coordinates":[7806,3135]},{"type":"Point","properties":{"name":"Texarkana","state":"Arkansas"},"coordinates":[7494,2670]},{"type":"Point","properties":{"name":"Pine Bluff","state":"Arkansas"},"coordinates":[7684,2823]},{"type":"Point","properties":{"name":"Hot Springs","state":"Arkansas"},"coordinates":[7586,2876]},{"type":"Point","properties":{"name":"Fort Smith","state":"Arkansas"},"coordinates":[7460,3047]},{"type":"Point","properties":{"name":"Fayetteville","state":"Arkansas"},"coordinates":[7483,3178]},{"type":"Point","properties":{"name":"Conway","state":"Arkansas"},"coordinates":[7642,2990]},{"type":"Point","properties":{"name":"El Dorado","state":"Arkansas"},"coordinates":[7623,2626]},{"type":"Point","properties":{"name":"Davenport","state":"Iowa"},"coordinates":[7817,4241]},{"type":"Point","properties":{"name":"Burlington","state":"Iowa"},"coordinates":[7767,4096]},{"type":"Point","properties":{"name":"Dubuque","state":"Iowa"},"coordinates":[7809,4424]},{"type":"Point","properties":{"name":"Waterloo","state":"Iowa"},"coordinates":[7652,4423]},{"type":"Point","properties":{"name":"Sioux City","state":"Iowa"},"coordinates":[7273,4424]},{"type":"Point","properties":{"name":"Council Bluffs","state":"Iowa"},"coordinates":[7324,4184]},{"type":"Point","properties":{"name":"Ames","state":"Iowa"},"coordinates":[7533,4338]},{"type":"Point","properties":{"name":"Mason City","state":"Iowa"},"coordinates":[7572,4551]},{"type":"Point","properties":{"name":"Emporia","state":"Kansas"},"coordinates":[7294,3631]},{"type":"Point","properties":{"name":"Salina","state":"Kansas"},"coordinates":[7160,3712]},{"type":"Point","properties":{"name":"Dodge City","state":"Kansas"},"coordinates":[6935,3506]},{"type":"Point","properties":{"name":"Coffeyville","state":"Kansas"},"coordinates":[7346,3366]},{"type":"Point","properties":{"name":"St. Charles","state":"Missouri"},"coordinates":[7824,3705]},{"type":"Point","properties":{"name":"Poplar Bluff","state":"Missouri"},"coordinates":[7834,3313]},{"type":"Point","properties":{"name":"Joplin","state":"Missouri"},"coordinates":[7450,3376]},{"type":"Point","properties":{"name":"Columbia","state":"Missouri"},"coordinates":[7653,3737]},{"type":"Point","properties":{"name":"St. Joseph","state":"Missouri"},"coordinates":[7418,3895]},{"type":"Point","properties":{"name":"McCook","state":"Nebraska"},"coordinates":[6878,3980]},{"type":"Point","properties":{"name":"Norfolk","state":"Nebraska"},"coordinates":[7177,4333]},{"type":"Point","properties":{"name":"North Platte","state":"Nebraska"},"coordinates":[6865,4160]},{"type":"Point","properties":{"name":"Sidney","state":"Nebraska"},"coordinates":[6658,4161]},{"type":"Point","properties":{"name":"Scottsbluff","state":"Nebraska"},"coordinates":[6594,4302]},{"type":"Point","properties":{"name":"Chadron","state":"Nebraska"},"coordinates":[6656,4488]},{"type":"Point","properties":{"name":"Lawton","state":"Oklahoma"},"coordinates":[7085,2894]},{"type":"Point","properties":{"name":"Norman","state":"Oklahoma"},"coordinates":[7185,3016]},{"type":"Point","properties":{"name":"Muskogee","state":"Oklahoma"},"coordinates":[7370,3117]},{"type":"Point","properties":{"name":"Ponca City","state":"Oklahoma"},"coordinates":[7209,3302]},{"type":"Point","properties":{"name":"Shawnee","state":"Oklahoma"},"coordinates":[7223,3038]},{"type":"Point","properties":{"name":"Woodward","state":"Oklahoma"},"coordinates":[6993,3249]},{"type":"Point","properties":{"name":"Guymon","state":"Oklahoma"},"coordinates":[6798,3298]},{"type":"Point","properties":{"name":"Yankton","state":"South Dakota"},"coordinates":[7180,4498]},{"type":"Point","properties":{"name":"Brookings","state":"South Dakota"},"coordinates":[7237,4774]},{"type":"Point","properties":{"name":"Mitchell","state":"South Dakota"},"coordinates":[7121,4659]},{"type":"Point","properties":{"name":"Aberdeen","state":"South Dakota"},"coordinates":[7078,4998]},{"type":"Point","properties":{"name":"Mobridge","state":"South Dakota"},"coordinates":[6896,5013]},{"type":"Point","properties":{"name":"Houma","state":"Louisiana"},"coordinates":[7804,1925]},{"type":"Point","properties":{"name":"Monroe","state":"Louisiana"},"coordinates":[7673,2490]},{"type":"Point","properties":{"name":"Conroe","state":"Texas"},"coordinates":[7361,2064]},{"type":"Point","properties":{"name":"Nacogdoches","state":"Texas"},"coordinates":[7436,2314]},{"type":"Point","properties":{"name":"Eagle Pass","state":"Texas"},"coordinates":[6891,1754]},{"type":"Point","properties":{"name":"Edinburg","state":"Texas"},"coordinates":[7109,1288]},{"type":"Point","properties":{"name":"Kingsville","state":"Texas"},"coordinates":[7137,1523]},{"type":"Point","properties":{"name":"Port Arthur","state":"Texas"},"coordinates":[7504,1984]},{"type":"Point","properties":{"name":"Huntsville","state":"Texas"},"coordinates":[7353,2144]},{"type":"Point","properties":{"name":"Killeen","state":"Texas"},"coordinates":[7149,2220]},{"type":"Point","properties":{"name":"Lufkin","state":"Texas"},"coordinates":[7429,2263]},{"type":"Point","properties":{"name":"Del Rio","state":"Texas"},"coordinates":[6853,1880]},{"type":"Point","properties":{"name":"San Angelo","state":"Texas"},"coordinates":[6896,2287]},{"type":"Point","properties":{"name":"Sherman","state":"Texas"},"coordinates":[7254,2708]},{"type":"Point","properties":{"name":"Beaumont","state":"Texas"},"coordinates":[7488,2020]},{"type":"Point","properties":{"name":"Bay City","state":"Texas"},"coordinates":[7314,1806]},{"type":"Point","properties":{"name":"Port Lavaca","state":"Texas"},"coordinates":[7252,1736]},{"type":"Point","properties":{"name":"Falfurrias","state":"Texas"},"coordinates":[7110,1467]},{"type":"Point","properties":{"name":"Beeville","state":"Texas"},"coordinates":[7147,1695]},{"type":"Point","properties":{"name":"Fort Stockton","state":"Texas"},"coordinates":[6667,2176]},{"type":"Point","properties":{"name":"Pecos","state":"Texas"},"coordinates":[6609,2278]},{"type":"Point","properties":{"name":"Dumas","state":"Texas"},"coordinates":[6753,3139]},{"type":"Point","properties":{"name":"Denton","state":"Texas"},"coordinates":[7205,2626]},{"type":"Point","properties":{"name":"Midland","state":"Texas"},"coordinates":[6741,2397]},{"type":"Point","properties":{"name":"Temple","state":"Texas"},"coordinates":[7183,2217]},{"type":"Point","properties":{"name":"New Haven","state":"Connecticut"},"coordinates":[9470,4198]},{"type":"Point","properties":{"name":"Lowell","state":"Massachusetts"},"coordinates":[9618,4450]},{"type":"Point","properties":{"name":"Worcester","state":"Massachusetts"},"coordinates":[9573,4380]},{"type":"Point","properties":{"name":"Manchester","state":"New Hampshire"},"coordinates":[9605,4520]},{"type":"Point","properties":{"name":"Newport","state":"Rhode Island"},"coordinates":[9618,4229]},{"type":"Point","properties":{"name":"Dothan","state":"Alabama"},"coordinates":[8302,2241]},{"type":"Point","properties":{"name":"Tuscaloosa","state":"Alabama"},"coordinates":[8101,2628]},{"type":"Point","properties":{"name":"Gadsden","state":"Alabama"},"coordinates":[8245,2781]},{"type":"Point","properties":{"name":"Enterprise","state":"Alabama"},"coordinates":[8260,2261]},{"type":"Point","properties":{"name":"Selma","state":"Alabama"},"coordinates":[8150,2470]},{"type":"Point","properties":{"name":"Coral Gables","state":"Florida"},"coordinates":[8779,1174]},{"type":"Point","properties":{"name":"Cape Coral","state":"Florida"},"coordinates":[8621,1346]},{"type":"Point","properties":{"name":"Naples","state":"Florida"},"coordinates":[8639,1257]},{"type":"Point","properties":{"name":"Fort Pierce","state":"Florida"},"coordinates":[8776,1509]},{"type":"Point","properties":{"name":"Kissimmee","state":"Florida"},"coordinates":[8675,1673]},{"type":"Point","properties":{"name":"Titusville","state":"Florida"},"coordinates":[8731,1735]},{"type":"Point","properties":{"name":"St. Augustine","state":"Florida"},"coordinates":[8683,1983]},{"type":"Point","properties":{"name":"Ocala","state":"Florida"},"coordinates":[8606,1846]},{"type":"Point","properties":{"name":"Fort Lauderdale","state":"Florida"},"coordinates":[8793,1255]},{"type":"Point","properties":{"name":"Apalachicola","state":"Florida"},"coordinates":[8340,1951]},{"type":"Point","properties":{"name":"Vero Beach","state":"Florida"},"coordinates":[8770,1547]},{"type":"Point","properties":{"name":"Valdosta","state":"Georgia"},"coordinates":[8500,2165]},{"type":"Point","properties":{"name":"Albany","state":"Georgia"},"coordinates":[8418,2309]},{"type":"Point","properties":{"name":"Athens","state":"Georgia"},"coordinates":[8491,2771]},{"type":"Point","properties":{"name":"Macon","state":"Georgia"},"coordinates":[8467,2556]},{"type":"Point","properties":{"name":"Columbus","state":"Georgia"},"coordinates":[8341,2482]},{"type":"Point","properties":{"name":"Douglas","state":"Georgia"},"coordinates":[8540,2296]},{"type":"Point","properties":{"name":"Dublin","state":"Georgia"},"coordinates":[8534,2495]},{"type":"Point","properties":{"name":"Gulfport","state":"Mississippi"},"coordinates":[7956,2075]},{"type":"Point","properties":{"name":"Hattiesburg","state":"Mississippi"},"coordinates":[7938,2261]},{"type":"Point","properties":{"name":"Tupelo","state":"Mississippi"},"coordinates":[7993,2828]},{"type":"Point","properties":{"name":"Greenville","state":"Mississippi"},"coordinates":[7772,2664]},{"type":"Point","properties":{"name":"Natchez","state":"Mississippi"},"coordinates":[7742,2305]},{"type":"Point","properties":{"name":"Florence","state":"South Carolina"},"coordinates":[8829,2816]},{"type":"Point","properties":{"name":"Greenville","state":"South Carolina"},"coordinates":[8583,2943]},{"type":"Point","properties":{"name":"Sumter","state":"South Carolina"},"coordinates":[8774,2763]},{"type":"Point","properties":{"name":"Anderson","state":"South Carolina"},"coordinates":[8559,2876]},{"type":"Point","properties":{"name":"Aiken","state":"South Carolina"},"coordinates":[8646,2691]},{"type":"Point","properties":{"name":"Beaufort","state":"South Carolina"},"coordinates":[8742,2475]},{"type":"Point","properties":{"name":"Rock Hill","state":"South Carolina"},"coordinates":[8710,2960]},{"type":"Point","properties":{"name":"Decatur","state":"Illinois"},"coordinates":[7969,3909]},{"type":"Point","properties":{"name":"Alton","state":"Illinois"},"coordinates":[7854,3725]},{"type":"Point","properties":{"name":"Quincy","state":"Illinois"},"coordinates":[7740,3928]},{"type":"Point","properties":{"name":"Urbana","state":"Illinois"},"coordinates":[8039,3961]},{"type":"Point","properties":{"name":"Bloomington","state":"Illinois"},"coordinates":[7966,4034]},{"type":"Point","properties":{"name":"Kankakee","state":"Illinois"},"coordinates":[8071,4157]},{"type":"Point","properties":{"name":"Waukegan","state":"Illinois"},"coordinates":[8073,4398]},{"type":"Point","properties":{"name":"Aurora","state":"Illinois"},"coordinates":[8030,4282]},{"type":"Point","properties":{"name":"Carbondale","state":"Illinois"},"coordinates":[7944,3500]},{"type":"Point","properties":{"name":"Belleville","state":"Illinois"},"coordinates":[7871,3654]},{"type":"Point","properties":{"name":"Bloomington","state":"Indiana"},"coordinates":[8196,3778]},{"type":"Point","properties":{"name":"Muncie","state":"Indiana"},"coordinates":[8303,3978]},{"type":"Point","properties":{"name":"Kokomo","state":"Indiana"},"coordinates":[8233,4034]},{"type":"Point","properties":{"name":"Gary","state":"Indiana"},"coordinates":[8121,4246]},{"type":"Point","properties":{"name":"Fort Wayne","state":"Indiana"},"coordinates":[8327,4149]},{"type":"Point","properties":{"name":"Covington","state":"Kentucky"},"coordinates":[8385,3763]},{"type":"Point","properties":{"name":"Bowling Green","state":"Kentucky"},"coordinates":[8204,3357]},{"type":"Point","properties":{"name":"Paducah","state":"Kentucky"},"coordinates":[8002,3375]},{"type":"Point","properties":{"name":"Owensboro","state":"Kentucky"},"coordinates":[8141,3509]},{"type":"Point","properties":{"name":"Jacksonville","state":"North Carolina"},"coordinates":[9047,2924]},{"type":"Point","properties":{"name":"Goldsboro","state":"North Carolina"},"coordinates":[8994,3046]},{"type":"Point","properties":{"name":"Greenville","state":"North Carolina"},"coordinates":[9053,3091]},{"type":"Point","properties":{"name":"Fayetteville","state":"North Carolina"},"coordinates":[8911,2984]},{"type":"Point","properties":{"name":"Hickory","state":"North Carolina"},"coordinates":[8681,3114]},{"type":"Point","properties":{"name":"Asheville","state":"North Carolina"},"coordinates":[8568,3088]},{"type":"Point","properties":{"name":"Winston-Salem","state":"North Carolina"},"coordinates":[8782,3186]},{"type":"Point","properties":{"name":"Kitty Hawk","state":"North Carolina"},"coordinates":[9208,3180]},{"type":"Point","properties":{"name":"Akron","state":"Ohio"},"coordinates":[8664,4147]},{"type":"Point","properties":{"name":"Lima","state":"Ohio"},"coordinates":[8423,4084]},{"type":"Point","properties":{"name":"Oak Ridge","state":"Tennessee"},"coordinates":[8407,3168]},{"type":"Point","properties":{"name":"Murfreesboro","state":"Tennessee"},"coordinates":[8209,3136]},{"type":"Point","properties":{"name":"Clarksville","state":"Tennessee"},"coordinates":[8118,3268]},{"type":"Point","properties":{"name":"Jackson","state":"Tennessee"},"coordinates":[7982,3091]},{"type":"Point","properties":{"name":"Alexandria","state":"Virginia"},"coordinates":[9077,3712]},{"type":"Point","properties":{"name":"Fredericksburg","state":"Virginia"},"coordinates":[9044,3612]},{"type":"Point","properties":{"name":"Roanoke","state":"Virginia"},"coordinates":[8812,3412]},{"type":"Point","properties":{"name":"Danville","state":"Virginia"},"coordinates":[8863,3279]},{"type":"Point","properties":{"name":"Winchester","state":"Virginia"},"coordinates":[8978,3781]},{"type":"Point","properties":{"name":"Bristol","state":"Virginia"},"coordinates":[8603,3284]},{"type":"Point","properties":{"name":"Superior","state":"Wisconsin"},"coordinates":[7675,5242]},{"type":"Point","properties":{"name":"West Bend","state":"Wisconsin"},"coordinates":[8041,4603]},{"type":"Point","properties":{"name":"Fond du Lac","state":"Wisconsin"},"coordinates":[8017,4671]},{"type":"Point","properties":{"name":"Oshkosh","state":"Wisconsin"},"coordinates":[8008,4719]},{"type":"Point","properties":{"name":"Rhinelander","state":"Wisconsin"},"coordinates":[7926,5032]},{"type":"Point","properties":{"name":"Racine","state":"Wisconsin"},"coordinates":[8076,4468]},{"type":"Point","properties":{"name":"Marinette","state":"Wisconsin"},"coordinates":[8093,4928]},{"type":"Point","properties":{"name":"Wheeling","state":"West Virginia"},"coordinates":[8739,3952]},{"type":"Point","properties":{"name":"Morgantown","state":"West Virginia"},"coordinates":[8810,3868]},{"type":"Point","properties":{"name":"Huntington","state":"West Virginia"},"coordinates":[8578,3634]},{"type":"Point","properties":{"name":"Beckley","state":"West Virginia"},"coordinates":[8696,3510]},{"type":"Point","properties":{"name":"Wilmington","state":"Delaware"},"coordinates":[9223,3891]},{"type":"Point","properties":{"name":"Cumberland","state":"Maryland"},"coordinates":[8922,3873]},{"type":"Point","properties":{"name":"Atlantic City","state":"New Jersey"},"coordinates":[9328,3817]},{"type":"Point","properties":{"name":"Newark","state":"New Jersey"},"coordinates":[9351,4076]},{"type":"Point","properties":{"name":"Schenectady","state":"New York"},"coordinates":[9373,4485]},{"type":"Point","properties":{"name":"Binghamton","state":"New York"},"coordinates":[9188,4346]},{"type":"Point","properties":{"name":"Utica","state":"New York"},"coordinates":[9252,4541]},{"type":"Point","properties":{"name":"Watertown","state":"New York"},"coordinates":[9189,4710]},{"type":"Point","properties":{"name":"Niagara Falls","state":"New York"},"coordinates":[8896,4539]},{"type":"Point","properties":{"name":"Jamestown","state":"New York"},"coordinates":[8878,4346]},{"type":"Point","properties":{"name":"Elmira","state":"New York"},"coordinates":[9105,4345]},{"type":"Point","properties":{"name":"York","state":"Pennsylvania"},"coordinates":[9112,3933]},{"type":"Point","properties":{"name":"Johnstown","state":"Pennsylvania"},"coordinates":[8907,4003]},{"type":"Point","properties":{"name":"Scranton","state":"Pennsylvania"},"coordinates":[9212,4213]},{"type":"Point","properties":{"name":"State College","state":"Pennsylvania"},"coordinates":[9006,4094]},{"type":"Point","properties":{"name":"Erie","state":"Pennsylvania"},"coordinates":[8798,4352]},{"type":"Point","properties":{"name":"Wilkes Barre","state":"Pennsylvania"},"coordinates":[9192,4182]},{"type":"Point","properties":{"name":"Bar Harbor","state":"Maine"},"coordinates":[9909,4790]},{"type":"Point","properties":{"name":"Lewiston","state":"Maine"},"coordinates":[9721,4734]},{"type":"Point","properties":{"name":"Presque Isle","state":"Maine"},"coordinates":[9928,5255]},{"type":"Point","properties":{"name":"Ann Arbor","state":"Michigan"},"coordinates":[8459,4385]},{"type":"Point","properties":{"name":"Kalamazoo","state":"Michigan"},"coordinates":[8284,4384]},{"type":"Point","properties":{"name":"Muskegon","state":"Michigan"},"coordinates":[8222,4566]},{"type":"Point","properties":{"name":"Flint","state":"Michigan"},"coordinates":[8462,4523]},{"type":"Point","properties":{"name":"Grand Rapids","state":"Michigan"},"coordinates":[8276,4514]},{"type":"Point","properties":{"name":"Pontiac","state":"Michigan"},"coordinates":[8499,4454]},{"type":"Point","properties":{"name":"Cadillac","state":"Michigan"},"coordinates":[8300,4763]},{"type":"Point","properties":{"name":"Traverse City","state":"Michigan"},"coordinates":[8281,4863]},{"type":"Point","properties":{"name":"Petoskey","state":"Michigan"},"coordinates":[8343,4981]},{"type":"Point","properties":{"name":"Escanaba","state":"Michigan"},"coordinates":[8146,5053]},{"type":"Point","properties":{"name":"Marquette","state":"Michigan"},"coordinates":[8114,5208]},{"type":"Point","properties":{"name":"Hancock","state":"Michigan"},"coordinates":[8004,5320]},{"type":"Point","properties":{"name":"Wrangell","state":"Alaska"},"coordinates":[3910,7129]},{"type":"Point","properties":{"name":"Shishmaref","state":"Alaska"},"coordinates":[760,9024]},{"type":"Point","properties":{"name":"Hoonah","state":"Alaska"},"coordinates":[3624,7448]},{"type":"Point","properties":{"name":"Atka","state":"Alaska"},"coordinates":[0,6302]},{"type":"Point","properties":{"name":"Nikolski","state":"Alaska"},"coordinates":[499,6445]},{"type":"Point","properties":{"name":"Karluk","state":"Alaska"},"coordinates":[1846,7343]},{"type":"Point","properties":{"name":"False Pass","state":"Alaska"},"coordinates":[1008,6816]},{"type":"Point","properties":{"name":"Kivalina","state":"Alaska"},"coordinates":[908,9310]},{"type":"Point","properties":{"name":"Newhalen","state":"Alaska"},"coordinates":[1805,7759]},{"type":"Point","properties":{"name":"Pilot Point","state":"Alaska"},"coordinates":[1555,7341]},{"type":"Point","properties":{"name":"Chignik","state":"Alaska"},"coordinates":[1477,7095]},{"type":"Point","properties":{"name":"King Salmon","state":"Alaska"},"coordinates":[1640,7559]},{"type":"Point","properties":{"name":"Quinhagak","state":"Alaska"},"coordinates":[1148,7764]},{"type":"Point","properties":{"name":"Aniak","state":"Alaska"},"coordinates":[1372,8118]},{"type":"Point","properties":{"name":"Kotlit","state":"Alaska"},"coordinates":[995,8400]},{"type":"Point","properties":{"name":"Unalakleet","state":"Alaska"},"coordinates":[1254,8563]},{"type":"Point","properties":{"name":"Koyuk","state":"Alaska"},"coordinates":[1219,8769]},{"type":"Point","properties":{"name":"McGrath","state":"Alaska"},"coordinates":[1739,8385]},{"type":"Point","properties":{"name":"Hughes","state":"Alaska"},"coordinates":[1865,8984]},{"type":"Point","properties":{"name":"Ambler","state":"Alaska"},"coordinates":[1528,9185]},{"type":"Point","properties":{"name":"Wales","state":"Alaska"},"coordinates":[571,8899]},{"type":"Point","properties":{"name":"Kotzebue","state":"Alaska"},"coordinates":[1085,9149]},{"type":"Point","properties":{"name":"Wasilla","state":"Alaska"},"coordinates":[2315,8119]},{"type":"Point","properties":{"name":"Circle","state":"Alaska"},"coordinates":[2818,8941]},{"type":"Point","properties":{"name":"Denali Park","state":"Alaska"},"coordinates":[2364,8536]},{"type":"Point","properties":{"name":"Yakutat","state":"Alaska"},"coordinates":[3223,7725]},{"type":"Point","properties":{"name":"Homer","state":"Alaska"},"coordinates":[2118,7744]},{"type":"Point","properties":{"name":"Tanacross","state":"Alaska"},"coordinates":[2884,8468]},{"type":"Point","properties":{"name":"Wiseman","state":"Alaska"},"coordinates":[2252,9248]},{"type":"Point","properties":{"name":"Kailua-Kona","state":"Hawaii"},"coordinates":[1703,0]},{"type":"Point","properties":{"name":"Butte","state":"Montana"},"coordinates":[5765,5103]},{"type":"Point","properties":{"name":"Grand Forks","state":"North Dakota"},"coordinates":[7214,5475]},{"type":"Point","properties":{"name":"Pocatello","state":"Idaho"},"coordinates":[5773,4496]},{"type":"Point","properties":{"name":"Tacoma","state":"Washington"},"coordinates":[4832,5336]},{"type":"Point","properties":{"name":"Yuma","state":"Arizona"},"coordinates":[5570,2524]},{"type":"Point","properties":{"name":"Prescott","state":"Arizona"},"coordinates":[5773,2892]},{"type":"Point","properties":{"name":"Long Beach","state":"California"},"coordinates":[5239,2737]},{"type":"Point","properties":{"name":"Grand Junction","state":"Colorado"},"coordinates":[6137,3765]},{"type":"Point","properties":{"name":"Ely","state":"Nevada"},"coordinates":[5545,3794]},{"type":"Point","properties":{"name":"Carson City","state":"Nevada"},"coordinates":[5089,3778]},{"type":"Point","properties":{"name":"Carlsbad","state":"New Mexico"},"coordinates":[6541,2472]},{"type":"Point","properties":{"name":"Alamogordo","state":"New Mexico"},"coordinates":[6380,2565]},{"type":"Point","properties":{"name":"Medford","state":"Oregon"},"coordinates":[4798,4391]},{"type":"Point","properties":{"name":"Klamath Falls","state":"Oregon"},"coordinates":[4900,4371]},{"type":"Point","properties":{"name":"St. George","state":"Utah"},"coordinates":[5667,3379]},{"type":"Point","properties":{"name":"Provo","state":"Utah"},"coordinates":[5849,3988]},{"type":"Point","properties":{"name":"Laramie","state":"Wyoming"},"coordinates":[6414,4194]},{"type":"Point","properties":{"name":"Little Rock","state":"Arkansas"},"coordinates":[7654,2921]},{"type":"Point","properties":{"name":"Wichita","state":"Kansas"},"coordinates":[7186,3499]},{"type":"Point","properties":{"name":"Jefferson City","state":"Missouri"},"coordinates":[7668,3664]},{"type":"Point","properties":{"name":"Rapid City","state":"South Dakota"},"coordinates":[6635,4730]},{"type":"Point","properties":{"name":"Lafayette","state":"Louisiana"},"coordinates":[7683,2042]},{"type":"Point","properties":{"name":"Galveston","state":"Texas"},"coordinates":[7423,1868]},{"type":"Point","properties":{"name":"Freeport","state":"Texas"},"coordinates":[7371,1802]},{"type":"Point","properties":{"name":"Victoria","state":"Texas"},"coordinates":[7217,1772]},{"type":"Point","properties":{"name":"Odessa","state":"Texas"},"coordinates":[6715,2361]},{"type":"Point","properties":{"name":"Wichita Falls","state":"Texas"},"coordinates":[7078,2761]},{"type":"Point","properties":{"name":"Waco","state":"Texas"},"coordinates":[7203,2304]},{"type":"Point","properties":{"name":"Lubbock","state":"Texas"},"coordinates":[6761,2697]},{"type":"Point","properties":{"name":"Hartford","state":"Connecticut"},"coordinates":[9490,4283]},{"type":"Point","properties":{"name":"Providence","state":"Rhode Island"},"coordinates":[9609,4293]},{"type":"Point","properties":{"name":"Birmingham","state":"Alabama"},"coordinates":[8168,2687]},{"type":"Point","properties":{"name":"Mobile","state":"Alabama"},"coordinates":[8054,2135]},{"type":"Point","properties":{"name":"Pensacola","state":"Florida"},"coordinates":[8132,2085]},{"type":"Point","properties":{"name":"St. Petersburg","state":"Florida"},"coordinates":[8556,1572]},{"type":"Point","properties":{"name":"Biloxi","state":"Mississippi"},"coordinates":[7976,2080]},{"type":"Point","properties":{"name":"Springfield","state":"Illinois"},"coordinates":[7904,3905]},{"type":"Point","properties":{"name":"Frankfort","state":"Kentucky"},"coordinates":[8351,3592]},{"type":"Point","properties":{"name":"Greensboro","state":"North Carolina"},"coordinates":[8825,3179]},{"type":"Point","properties":{"name":"Dayton","state":"Ohio"},"coordinates":[8414,3892]},{"type":"Point","properties":{"name":"Virginia Beach","state":"Virginia"},"coordinates":[9182,3331]},{"type":"Point","properties":{"name":"Madison","state":"Wisconsin"},"coordinates":[7927,4535]},{"type":"Point","properties":{"name":"Green Bay","state":"Wisconsin"},"coordinates":[8058,4817]},{"type":"Point","properties":{"name":"Trenton","state":"New Jersey"},"coordinates":[9298,3982]},{"type":"Point","properties":{"name":"Lansing","state":"Michigan"},"coordinates":[8381,4469]},{"type":"Point","properties":{"name":"Gambell","state":"Alaska"},"coordinates":[231,8545]},{"type":"Point","properties":{"name":"Palmer","state":"Alaska"},"coordinates":[2345,8123]},{"type":"Point","properties":{"name":"Seward","state":"Alaska"},"coordinates":[2312,7837]},{"type":"Point","properties":{"name":"Duluth","state":"Minnesota"},"coordinates":[7675,5254]},{"type":"Point","properties":{"name":"Bemidji","state":"Minnesota"},"coordinates":[7415,5387]},{"type":"Point","properties":{"name":"Havre","state":"Montana"},"coordinates":[6032,5595]},{"type":"Point","properties":{"name":"Kalispell","state":"Montana"},"coordinates":[5598,5527]},{"type":"Point","properties":{"name":"Idaho Falls","state":"Idaho"},"coordinates":[5812,4611]},{"type":"Point","properties":{"name":"Lewiston","state":"Idaho"},"coordinates":[5346,5183]},{"type":"Point","properties":{"name":"Yakima","state":"Washington"},"coordinates":[5020,5218]},{"type":"Point","properties":{"name":"Wenatchee","state":"Washington"},"coordinates":[5038,5378]},{"type":"Point","properties":{"name":"Douglas","state":"Arizona"},"coordinates":[6044,2267]},{"type":"Point","properties":{"name":"Bakersfield","state":"California"},"coordinates":[5159,3043]},{"type":"Point","properties":{"name":"Oakland","state":"California"},"coordinates":[4859,3508]},{"type":"Point","properties":{"name":"Lancaster","state":"California"},"coordinates":[5241,2913]},{"type":"Point","properties":{"name":"Chico","state":"California"},"coordinates":[4895,3887]},{"type":"Point","properties":{"name":"Monterey","state":"California"},"coordinates":[4890,3282]},{"type":"Point","properties":{"name":"Salinas","state":"California"},"coordinates":[4913,3298]},{"type":"Point","properties":{"name":"Los Alamos","state":"New Mexico"},"coordinates":[6348,3144]},{"type":"Point","properties":{"name":"Eugene","state":"Oregon"},"coordinates":[4777,4724]},{"type":"Point","properties":{"name":"Coos Bay","state":"Oregon"},"coordinates":[4673,4592]},{"type":"Point","properties":{"name":"Bend","state":"Oregon"},"coordinates":[4944,4729]},{"type":"Point","properties":{"name":"Cody","state":"Wyoming"},"coordinates":[6090,4816]},{"type":"Point","properties":{"name":"Cedar Rapids","state":"Iowa"},"coordinates":[7716,4321]},{"type":"Point","properties":{"name":"Springfield","state":"Missouri"},"coordinates":[7561,3394]},{"type":"Point","properties":{"name":"Lincoln","state":"Nebraska"},"coordinates":[7247,4099]},{"type":"Point","properties":{"name":"Alexandria","state":"Louisiana"},"coordinates":[7643,2258]},{"type":"Point","properties":{"name":"Abilene","state":"Texas"},"coordinates":[6962,2478]},{"type":"Point","properties":{"name":"Brownsville","state":"Texas"},"coordinates":[7170,1214]},{"type":"Point","properties":{"name":"Tyler","state":"Texas"},"coordinates":[7376,2459]},{"type":"Point","properties":{"name":"Concord","state":"New Hampshire"},"coordinates":[9597,4561]},{"type":"Point","properties":{"name":"Huntsville","state":"Alabama"},"coordinates":[8188,2918]},{"type":"Point","properties":{"name":"Key West","state":"Florida"},"coordinates":[8640,949]},{"type":"Point","properties":{"name":"West Palm Beach","state":"Florida"},"coordinates":[8795,1373]},{"type":"Point","properties":{"name":"Sarasota","state":"Florida"},"coordinates":[8570,1488]},{"type":"Point","properties":{"name":"Daytona Beach","state":"Florida"},"coordinates":[8711,1851]},{"type":"Point","properties":{"name":"Gainesville","state":"Florida"},"coordinates":[8589,1936]},{"type":"Point","properties":{"name":"Ft. Myers","state":"Florida"},"coordinates":[8632,1353]},{"type":"Point","properties":{"name":"Brunswick","state":"Georgia"},"coordinates":[8667,2226]},{"type":"Point","properties":{"name":"Augusta","state":"Georgia"},"coordinates":[8621,2674]},{"type":"Point","properties":{"name":"Vicksburg","state":"Mississippi"},"coordinates":[7789,2459]},{"type":"Point","properties":{"name":"Myrtle Beach","state":"South Carolina"},"coordinates":[8910,2718]},{"type":"Point","properties":{"name":"Charleston","state":"South Carolina"},"coordinates":[8807,2544]},{"type":"Point","properties":{"name":"Peoria","state":"Illinois"},"coordinates":[7902,4076]},{"type":"Point","properties":{"name":"Evansville","state":"Indiana"},"coordinates":[8100,3548]},{"type":"Point","properties":{"name":"Louisville","state":"Kentucky"},"coordinates":[8269,3597]},{"type":"Point","properties":{"name":"Lexington","state":"Kentucky"},"coordinates":[8386,3562]},{"type":"Point","properties":{"name":"Charlotte","state":"North Carolina"},"coordinates":[8729,3012]},{"type":"Point","properties":{"name":"Youngstown","state":"Ohio"},"coordinates":[8746,4153]},{"type":"Point","properties":{"name":"Canton","state":"Ohio"},"coordinates":[8677,4095]},{"type":"Point","properties":{"name":"Toledo","state":"Ohio"},"coordinates":[8472,4263]},{"type":"Point","properties":{"name":"Columbus","state":"Ohio"},"coordinates":[8527,3937]},{"type":"Point","properties":{"name":"Chattanooga","state":"Tennessee"},"coordinates":[8316,2985]},{"type":"Point","properties":{"name":"Charlottesville","state":"Virginia"},"coordinates":[8949,3558]},{"type":"Point","properties":{"name":"Lynchburg","state":"Virginia"},"coordinates":[8887,3439]},{"type":"Point","properties":{"name":"Wausau","state":"Wisconsin"},"coordinates":[7906,4900]},{"type":"Point","properties":{"name":"Albany","state":"New York"},"coordinates":[9384,4457]},{"type":"Point","properties":{"name":"Ithaca","state":"New York"},"coordinates":[9134,4413]},{"type":"Point","properties":{"name":"Harrisburg","state":"Pennsylvania"},"coordinates":[9098,3993]},{"type":"Point","properties":{"name":"Bangor","state":"Maine"},"coordinates":[9855,4870]},{"type":"Point","properties":{"name":"Portland","state":"Maine"},"coordinates":[9718,4651]},{"type":"Point","properties":{"name":"Saginaw","state":"Michigan"},"coordinates":[8437,4602]},{"type":"Point","properties":{"name":"Ketchikan","state":"Alaska"},"coordinates":[3977,6914]},{"type":"Point","properties":{"name":"Unalaska","state":"Alaska"},"coordinates":[717,6625]},{"type":"Point","properties":{"name":"Togiak","state":"Alaska"},"coordinates":[1292,7633]},{"type":"Point","properties":{"name":"Red Devil","state":"Alaska"},"coordinates":[1579,8154]},{"type":"Point","properties":{"name":"Hooper Bay","state":"Alaska"},"coordinates":[758,8109]},{"type":"Point","properties":{"name":"Wainwright","state":"Alaska"},"coordinates":[1324,9872]},{"type":"Point","properties":{"name":"Galena","state":"Alaska"},"coordinates":[1615,8729]},{"type":"Point","properties":{"name":"Kaktovik","state":"Alaska"},"coordinates":[2860,9766]},{"type":"Point","properties":{"name":"Skagway","state":"Alaska"},"coordinates":[3635,7708]},{"type":"Point","properties":{"name":"Cordova","state":"Alaska"},"coordinates":[2659,7918]},{"type":"Point","properties":{"name":"Kenai","state":"Alaska"},"coordinates":[2145,7920]},{"type":"Point","properties":{"name":"Fort Yukon","state":"Alaska"},"coordinates":[2704,9084]},{"type":"Point","properties":{"name":"Santa Cruz","state":"California"},"coordinates":[4878,3354]},{"type":"Point","properties":{"name":"San Bernardino","state":"California"},"coordinates":[5319,2802]},{"type":"Point","properties":{"name":"Bridgeport","state":"Connecticut"},"coordinates":[9442,4169]},{"type":"Point","properties":{"name":"Rochester","state":"New York"},"coordinates":[9029,4554]},{"type":"Point","properties":{"name":"International Falls","state":"Minnesota"},"coordinates":[7553,5606]},{"type":"Point","properties":{"name":"St. Paul","state":"Minnesota"},"coordinates":[7583,4897]},{"type":"Point","properties":{"name":"Billings","state":"Montana"},"coordinates":[6138,5061]},{"type":"Point","properties":{"name":"Great Falls","state":"Montana"},"coordinates":[5880,5392]},{"type":"Point","properties":{"name":"Missoula","state":"Montana"},"coordinates":[5629,5271]},{"type":"Point","properties":{"name":"Minot","state":"North Dakota"},"coordinates":[6816,5534]},{"type":"Point","properties":{"name":"Fargo","state":"North Dakota"},"coordinates":[7237,5272]},{"type":"Point","properties":{"name":"Hilo","state":"Hawaii"},"coordinates":[1787,9]},{"type":"Point","properties":{"name":"Olympia","state":"Washington"},"coordinates":[4796,5303]},{"type":"Point","properties":{"name":"Spokane","state":"Washington"},"coordinates":[5308,5425]},{"type":"Point","properties":{"name":"Vancouver","state":"Washington"},"coordinates":[4820,5030]},{"type":"Point","properties":{"name":"Flagstaff","state":"Arizona"},"coordinates":[5848,3010]},{"type":"Point","properties":{"name":"Tucson","state":"Arizona"},"coordinates":[5918,2431]},{"type":"Point","properties":{"name":"Santa Barbara","state":"California"},"coordinates":[5093,2862]},{"type":"Point","properties":{"name":"Fresno","state":"California"},"coordinates":[5088,3310]},{"type":"Point","properties":{"name":"Eureka","state":"California"},"coordinates":[4679,4095]},{"type":"Point","properties":{"name":"Colorado Springs","state":"Colorado"},"coordinates":[6489,3720]},{"type":"Point","properties":{"name":"Reno","state":"Nevada"},"coordinates":[5084,3849]},{"type":"Point","properties":{"name":"Elko","state":"Nevada"},"coordinates":[5463,4101]},{"type":"Point","properties":{"name":"Albuquerque","state":"New Mexico"},"coordinates":[6316,2992]},{"type":"Point","properties":{"name":"Salem","state":"Oregon"},"coordinates":[4784,4894]},{"type":"Point","properties":{"name":"Casper","state":"Wyoming"},"coordinates":[6347,4495]},{"type":"Point","properties":{"name":"Topeka","state":"Kansas"},"coordinates":[7341,3756]},{"type":"Point","properties":{"name":"Kansas City","state":"Missouri"},"coordinates":[7441,3768]},{"type":"Point","properties":{"name":"Tulsa","state":"Oklahoma"},"coordinates":[7317,3189]},{"type":"Point","properties":{"name":"Sioux Falls","state":"South Dakota"},"coordinates":[7242,4627]},{"type":"Point","properties":{"name":"Shreveport","state":"Louisiana"},"coordinates":[7519,2488]},{"type":"Point","properties":{"name":"Baton Rouge","state":"Louisiana"},"coordinates":[7765,2092]},{"type":"Point","properties":{"name":"Ft. Worth","state":"Texas"},"coordinates":[7185,2534]},{"type":"Point","properties":{"name":"Corpus Christi","state":"Texas"},"coordinates":[7180,1567]},{"type":"Point","properties":{"name":"Austin","state":"Texas"},"coordinates":[7147,2056]},{"type":"Point","properties":{"name":"Amarillo","state":"Texas"},"coordinates":[6766,3016]},{"type":"Point","properties":{"name":"El Paso","state":"Texas"},"coordinates":[6328,2349]},{"type":"Point","properties":{"name":"Laredo","state":"Texas"},"coordinates":[6983,1521]},{"type":"Point","properties":{"name":"Burlington","state":"Vermont"},"coordinates":[9441,4807]},{"type":"Point","properties":{"name":"Montgomery","state":"Alabama"},"coordinates":[8219,2461]},{"type":"Point","properties":{"name":"Tallahassee","state":"Florida"},"coordinates":[8406,2091]},{"type":"Point","properties":{"name":"Orlando","state":"Florida"},"coordinates":[8677,1716]},{"type":"Point","properties":{"name":"Jacksonville","state":"Florida"},"coordinates":[8650,2068]},{"type":"Point","properties":{"name":"Savannah","state":"Georgia"},"coordinates":[8703,2395]},{"type":"Point","properties":{"name":"Columbia","state":"South Carolina"},"coordinates":[8722,2786]},{"type":"Point","properties":{"name":"Indianapolis","state":"Indiana"},"coordinates":[8229,3892]},{"type":"Point","properties":{"name":"Wilmington","state":"North Carolina"},"coordinates":[8998,2822]},{"type":"Point","properties":{"name":"Knoxville","state":"Tennessee"},"coordinates":[8440,3160]},{"type":"Point","properties":{"name":"Richmond","state":"Virginia"},"coordinates":[9045,3466]},{"type":"Point","properties":{"name":"Charleston","state":"West Virginia"},"coordinates":[8654,3620]},{"type":"Point","properties":{"name":"Baltimore","state":"Maryland"},"coordinates":[9122,3805]},{"type":"Point","properties":{"name":"Syracuse","state":"New York"},"coordinates":[9166,4531]},{"type":"Point","properties":{"name":"Augusta","state":"Maine"},"coordinates":[9762,4775]},{"type":"Point","properties":{"name":"Sault Ste. Marie","state":"Michigan"},"coordinates":[8400,5198]},{"type":"Point","properties":{"name":"Sitka","state":"Alaska"},"coordinates":[3634,7244]},{"type":"Point","properties":{"name":"Helena","state":"Montana"},"coordinates":[5812,5217]},{"type":"Point","properties":{"name":"Bismarck","state":"North Dakota"},"coordinates":[6863,5258]},{"type":"Point","properties":{"name":"Boise","state":"Idaho"},"coordinates":[5420,4639]},{"type":"Point","properties":{"name":"San Jose","state":"California"},"coordinates":[4894,3418]},{"type":"Point","properties":{"name":"Sacramento","state":"California"},"coordinates":[4929,3664]},{"type":"Point","properties":{"name":"Las Vegas","state":"Nevada"},"coordinates":[5514,3207]},{"type":"Point","properties":{"name":"Santa Fe","state":"New Mexico"},"coordinates":[6382,3105]},{"type":"Point","properties":{"name":"Portland","state":"Oregon"},"coordinates":[4816,5009]},{"type":"Point","properties":{"name":"Salt Lake City","state":"Utah"},"coordinates":[5821,4090]},{"type":"Point","properties":{"name":"Cheyenne","state":"Wyoming"},"coordinates":[6486,4161]},{"type":"Point","properties":{"name":"Des Moines","state":"Iowa"},"coordinates":[7533,4246]},{"type":"Point","properties":{"name":"Omaha","state":"Nebraska"},"coordinates":[7310,4180]},{"type":"Point","properties":{"name":"Oklahoma City","state":"Oklahoma"},"coordinates":[7168,3063]},{"type":"Point","properties":{"name":"Pierre","state":"South Dakota"},"coordinates":[6904,4786]},{"type":"Point","properties":{"name":"San Antonio","state":"Texas"},"coordinates":[7076,1905]},{"type":"Point","properties":{"name":"Jackson","state":"Mississippi"},"coordinates":[7854,2449]},{"type":"Point","properties":{"name":"Raleigh","state":"North Carolina"},"coordinates":[8933,3130]},{"type":"Point","properties":{"name":"Cleveland","state":"Ohio"},"coordinates":[8648,4225]},{"type":"Point","properties":{"name":"Cincinnati","state":"Ohio"},"coordinates":[8390,3778]},{"type":"Point","properties":{"name":"Nashville","state":"Tennessee"},"coordinates":[8172,3199]},{"type":"Point","properties":{"name":"Memphis","state":"Tennessee"},"coordinates":[7871,2995]},{"type":"Point","properties":{"name":"Norfolk","state":"Virginia"},"coordinates":[9154,3330]},{"type":"Point","properties":{"name":"Milwaukee","state":"Wisconsin"},"coordinates":[8066,4532]},{"type":"Point","properties":{"name":"Buffalo","state":"New York"},"coordinates":[8911,4498]},{"type":"Point","properties":{"name":"Pittsburgh","state":"Pennsylvania"},"coordinates":[8806,4024]},{"type":"Point","properties":{"name":"Kodiak","state":"Alaska"},"coordinates":[2037,7385]},{"type":"Point","properties":{"name":"Cold Bay","state":"Alaska"},"coordinates":[1074,6883]},{"type":"Point","properties":{"name":"Bethel","state":"Alaska"},"coordinates":[1163,7966]},{"type":"Point","properties":{"name":"Point Hope","state":"Alaska"},"coordinates":[691,9429]},{"type":"Point","properties":{"name":"Barrow","state":"Alaska"},"coordinates":[1628,9999]},{"type":"Point","properties":{"name":"Nome","state":"Alaska"},"coordinates":[822,8685]},{"type":"Point","properties":{"name":"Valdez","state":"Alaska"},"coordinates":[2604,8033]},{"type":"Point","properties":{"name":"Juneau","state":"Alaska"},"coordinates":[3719,7486]},{"type":"Point","properties":{"name":"Fairbanks","state":"Alaska"},"coordinates":[2476,8749]},{"type":"Point","properties":{"name":"Prudhoe Bay","state":"Alaska"},"coordinates":[2387,9806]},{"type":"Point","properties":{"name":"Minneapolis","state":"Minnesota"},"coordinates":[7567,4905]},{"type":"Point","properties":{"name":"Honolulu","state":"Hawaii"},"coordinates":[1528,321]},{"type":"Point","properties":{"name":"Seattle","state":"Washington"},"coordinates":[4848,5406]},{"type":"Point","properties":{"name":"Phoenix","state":"Arizona"},"coordinates":[5808,2690]},{"type":"Point","properties":{"name":"San Diego","state":"California"},"coordinates":[5330,2550]},{"type":"Point","properties":{"name":"St. Louis","state":"Missouri"},"coordinates":[7849,3676]},{"type":"Point","properties":{"name":"New Orleans","state":"Louisiana"},"coordinates":[7868,2003]},{"type":"Point","properties":{"name":"Dallas","state":"Texas"},"coordinates":[7232,2550]},{"type":"Point","properties":{"name":"Boston","state":"Massachusetts"},"coordinates":[9641,4392]},{"type":"Point","properties":{"name":"Tampa","state":"Florida"},"coordinates":[8576,1607]},{"type":"Point","properties":{"name":"Philadelphia","state":"Pennsylvania"},"coordinates":[9258,3940]},{"type":"Point","properties":{"name":"Detroit","state":"Michigan"},"coordinates":[8518,4392]},{"type":"Point","properties":{"name":"Anchorage","state":"Alaska"},"coordinates":[2272,8049]},{"type":"Point","properties":{"name":"San Francisco","state":"California"},"coordinates":[4841,3508]},{"type":"Point","properties":{"name":"Denver","state":"Colorado"},"coordinates":[6471,3890]},{"type":"Point","properties":{"name":"Houston","state":"Texas"},"coordinates":[7372,1969]},{"type":"Point","properties":{"name":"Miami","state":"Florida"},"coordinates":[8785,1188]},{"type":"Point","properties":{"name":"Atlanta","state":"Georgia"},"coordinates":[8395,2746]},{"type":"Point","properties":{"name":"Chicago","state":"Illinois"},"coordinates":[8082,4295]},{"type":"Point","properties":{"name":"Los Angeles","state":"California"},"coordinates":[5237,2777]},{"type":"Point","properties":{"name":"Washington, D.C.","state":"District of Columbia"},"coordinates":[9086,3727]},{"type":"Point","properties":{"name":"New York","state":"New York"},"coordinates":[9369,4086]}]}},"arcs":[],"transform":{"scale":[0.01069687936001655,0.005164336938586505],"translate":[-174.20048873095266,19.65236463203928]}}